{"type":"FeatureCollection", "features": [
{"type":"Feature","geometry":{"type":"Point","coordinates":[109.47814199999993,18.73803799999996]},"properties":{"OBJECTID":21099,"PID":"4690012002020051l007","WSCD":"WHF6100124RAH000","ADCD":"469001200202005","DANADCD":"4690012002010001l02t","CADCD":"469001","b11_code":"469001","b11_name":"五指山市","b12_code":"469001200","b12_name":"畅好乡","b13_name":"畅好村委会","b13_code":"469001200201010","lon":109.478142,"lat":18.738038,"geo_name":"五指山畅好学校","geo_addr":"畅好村委会"}},
{"type":"Feature","geometry":{"type":"Point","coordinates":[109.5126790000001,18.945515]},"properties":{"OBJECTID":21100,"PID":"4690011022060001l009","WSCD":"WHF610012C000000","ADCD":"469001102206000","DANADCD":"4690011022080001l02w","CADCD":"469001","b11_code":"469001","b11_name":"五指山市","b12_code":"469001102","b12_name":"毛阳镇","b13_name":"毛栈村委会","b13_code":"469001102206012","lon":109.512679,"lat":18.945515,"geo_name":"五指山市毛阳中心学校毛栈教学点","geo_addr":"毛栈村委会"}},
{"type":"Feature","geometry":{"type":"Point","coordinates":[109.64260900000005,18.899067000000002]},"properties":{"OBJECTID":21101,"PID":"4690012022030001l00b","WSCD":"WHF6100121IAB000","ADCD":"469001202203000","DANADCD":"4690012022030011l01E","CADCD":"469001","b11_code":"469001","b11_name":"五指山市","b12_code":"469001202","b12_name":"水满乡","b13_name":"毛脑村委会","b13_code":"469001202203012","lon":109.642609,"lat":18.899067,"geo_name":"五指山市水满中心学校毛脑教学点","geo_addr":"毛脑村委会"}},
{"type":"Feature","geometry":{"type":"Point","coordinates":[109.3043350000001,18.317098999999985]},"properties":{"OBJECTID":21083,"PID":"4602011042020000F00I","WSCD":"WMA0000A052F0000","ADCD":"460201104201000","DANADCD":"4602011042020000F08b","CADCD":"460201","b11_code":"460204","b11_name":"天涯区","b12_code":"460204000","b12_name":"天涯区","b13_name":"布甫村民委员会","b13_code":"460204000007015","lon":109.304335,"lat":18.317099,"geo_name":"布甫小学","geo_addr":"布甫村民委员会"}},
{"type":"Feature","geometry":{"type":"Point","coordinates":[109.31855300000018,18.310423999999955]},"properties":{"OBJECTID":21084,"PID":"4602011042010000F00J","WSCD":"WMA0000A052F0000","ADCD":"460201104200000","DANADCD":"4602011042020000F08b","CADCD":"460201","b11_code":"460204","b11_name":"天涯区","b12_code":"460204000","b12_name":"天涯区","b13_name":"黑土村民委员会","b13_code":"460204000001015","lon":109.318553,"lat":18.310424,"geo_name":"道德小学","geo_addr":"黑土村民委员会"}},
{"type":"Feature","geometry":{"type":"Point","coordinates":[109.32918100000006,18.3073040000001]},"properties":{"OBJECTID":21085,"PID":"4602011042000000F00K","WSCD":"WMA0000A05800000","ADCD":"460201104001000","DANADCD":"4602011042020000F08b","CADCD":"460201","b11_code":"460204","b11_name":"天涯区","b12_code":"460204000","b12_name":"天涯区","b13_name":"马岭居民委员会","b13_code":"460204000009015","lon":109.329181,"lat":18.307304,"geo_name":"天涯小学","geo_addr":"马岭居民委员会"}},
{"type":"Feature","geometry":{"type":"Point","coordinates":[109.16290600000013,18.372410000000002]},"properties":{"OBJECTID":21086,"PID":"4602011032020000F00L","WSCD":"WHF64006V0000000","ADCD":"460201103202000","DANADCD":"4602011030060000F07M","CADCD":"460201","b11_code":"460205","b11_name":"崖州区","b12_code":"460205000","b12_name":"崖州区","b13_name":"建成区","b13_code":"460205000111014","lon":109.162906,"lat":18.37241,"geo_name":"崖州区中心学校","geo_addr":"建成区"}},
{"type":"Feature","geometry":{"type":"Point","coordinates":[109.1325540000002,18.361788999999987]},"properties":{"OBJECTID":21087,"PID":"4602011032120000F00M","WSCD":"WHF6400I00000000","ADCD":"460201103210000","DANADCD":"4602011032110000F084","CADCD":"460201","b11_code":"460205","b11_name":"崖州区","b12_code":"460205000","b12_name":"崖州区","b13_name":"保港居民区","b13_code":"460205000095014","lon":109.132554,"lat":18.361789,"geo_name":"保港小学","geo_addr":"保港居民区"}},
{"type":"Feature","geometry":{"type":"Point","coordinates":[109.13189100000005,18.358258000000035]},"properties":{"OBJECTID":21088,"PID":"4602011032100000F00N","WSCD":"WHF64006V0000000","ADCD":"460201103210000","DANADCD":"4602011032100000F083","CADCD":"460201","b11_code":"460205","b11_name":"崖州区","b12_code":"460205000","b12_name":"崖州区","b13_name":"保港居民区","b13_code":"460205000095014","lon":109.131891,"lat":18.358258,"geo_name":"港二小学","geo_addr":"保港居民区"}},
{"type":"Feature","geometry":{"type":"Point","coordinates":[109.14963000000017,18.365661999999986]},"properties":{"OBJECTID":21089,"PID":"4602011032020000F00O","WSCD":"WHF64006V0000000","ADCD":"460201103204000","DANADCD":"4602011032040000F07R","CADCD":"460201","b11_code":"460205","b11_name":"崖州区","b12_code":"460205000","b12_name":"崖州区","b13_name":"水南村民委员会","b13_code":"460205000005014","lon":109.14963,"lat":18.365662,"geo_name":"水南小学","geo_addr":"水南村民委员会"}},
{"type":"Feature","geometry":{"type":"Point","coordinates":[109.17025899999993,18.37401200000005]},"properties":{"OBJECTID":21090,"PID":"4602011032040000F00P","WSCD":"WHF6400I00000000","ADCD":"460201103200000","DANADCD":"4602011032000000F07N","CADCD":"460201","b11_code":"460205","b11_name":"崖州区","b12_code":"460205000","b12_name":"崖州区","b13_name":"建成区","b13_code":"460205000111014","lon":109.170259,"lat":18.374012,"geo_name":"晓庄幼儿园","geo_addr":"建成区"}},
{"type":"Feature","geometry":{"type":"Point","coordinates":[109.64834899999994,18.795854000000134]},"properties":{"OBJECTID":21102,"PID":"4690011012050001l00c","WSCD":"WHF6100122RA0000","ADCD":"469001101205000","DANADCD":"4690011012050031l01x","CADCD":"469001","b11_code":"469001","b11_name":"五指山市","b12_code":"469001101","b12_name":"南圣镇","b13_name":"毛祥村委会","b13_code":"469001101205011","lon":109.648349,"lat":18.795854,"geo_name":"五指山市南圣中心学校毛祥教学点","geo_addr":"毛祥村委会"}},
{"type":"Feature","geometry":{"type":"Point","coordinates":[109.16175299999998,18.36588800000004]},"properties":{"OBJECTID":21091,"PID":"4602011032000000F00Q","WSCD":"WHF64006V0000000","ADCD":"460201103001000","DANADCD":"4602011032040000F07Q","CADCD":"460201","b11_code":"460205","b11_name":"崖州区","b12_code":"460205000","b12_name":"崖州区","b13_name":"中国轻工总会甘蔗糖业研究所海南甘蔗育种场","b13_code":"460205000129014","lon":109.161753,"lat":18.365888,"geo_name":"崖城镇中心卫生院","geo_addr":"中国轻工总会甘蔗糖业研究所海南甘蔗育种场"}},
{"type":"Feature","geometry":{"type":"Point","coordinates":[109.16431699999998,18.37142599999993]},"properties":{"OBJECTID":21092,"PID":"4602011030010000F00R","WSCD":"WHF6400I00000000","ADCD":"460201103202000","DANADCD":"4602011030060000F07M","CADCD":"460201","b11_code":"460205","b11_name":"崖州区","b12_code":"460205000","b12_name":"崖州区","b13_name":"建成区","b13_code":"460205000111014","lon":109.164317,"lat":18.371426,"geo_name":"崖城中学","geo_addr":"建成区"}},
{"type":"Feature","geometry":{"type":"Point","coordinates":[109.17249600000014,18.370225999999946]},"properties":{"OBJECTID":21093,"PID":"4602011032020000F00S","WSCD":"WHF64006V0000000","ADCD":"460201103200000","DANADCD":"4602011032000000F07N","CADCD":"460201","b11_code":"460205","b11_name":"崖州区","b12_code":"460205000","b12_name":"崖州区","b13_name":"宁远河","b13_code":"460205000118014","lon":109.172496,"lat":18.370226,"geo_name":"智多星幼儿园","geo_addr":"宁远河"}},
{"type":"Feature","geometry":{"type":"Point","coordinates":[109.1677620000001,18.364849999999933]},"properties":{"OBJECTID":21094,"PID":"4602011032000000F00T","WSCD":"WHF64006V0000000","ADCD":"460201103001000","DANADCD":"4602011032040000F07Q","CADCD":"460201","b11_code":"460205","b11_name":"崖州区","b12_code":"460205000","b12_name":"崖州区","b13_name":"水南村民委员会","b13_code":"460205000005014","lon":109.167762,"lat":18.36485,"geo_name":"江南学校","geo_addr":"水南村民委员会"}},
{"type":"Feature","geometry":{"type":"Point","coordinates":[109.30672499999997,18.39504100000005]},"properties":{"OBJECTID":21095,"PID":"4602014035010000F00U","WSCD":"WHF64002I0000000","ADCD":"460201403400000","DANADCD":"4602014035010000F07k","CADCD":"460201","b11_code":"460204","b11_name":"天涯区","b12_code":"460204000","b12_name":"天涯区","b13_name":"立才农场","b13_code":"460204000033016","lon":109.306725,"lat":18.395041,"geo_name":"立才小学","geo_addr":"立才农场"}},
{"type":"Feature","geometry":{"type":"Point","coordinates":[109.65228900000017,18.75998700000008]},"properties":{"OBJECTID":21096,"PID":"4690011012040061l001","WSCD":"WHF6100122RAA000","ADCD":"469001101204006","DANADCD":"4690011012040061l01B","CADCD":"469001","b11_code":"469001","b11_name":"五指山市","b12_code":"469001101","b12_name":"南圣镇","b13_name":"同甲村委会","b13_code":"469001101204011","lon":109.652289,"lat":18.759987,"geo_name":"五指山市南圣中心学校铜甲教学点","geo_addr":"同甲村委会"}},
{"type":"Feature","geometry":{"type":"Point","coordinates":[109.65606400000007,18.870415000000037]},"properties":{"OBJECTID":21103,"PID":"4690012022020001l00d","WSCD":"WHF6100121IA0000","ADCD":"469001202202001","DANADCD":"4690012022020021l01H","CADCD":"469001","b11_code":"469001","b11_name":"五指山市","b12_code":"469001202","b12_name":"水满乡","b13_name":"水满村委会","b13_code":"469001202202012","lon":109.656064,"lat":18.870415,"geo_name":"五指山市水满中心学校新民教学点","geo_addr":"水满村委会"}},
{"type":"Feature","geometry":{"type":"Point","coordinates":[110.62790300000006,19.444274999999948]},"properties":{"OBJECTID":23196,"PID":"4690051012080000s001","WSCD":"WHFB1204A0000000","ADCD":"469005101208000","DANADCD":"4690051012080000c00b","CADCD":"469005","b11_code":"469005","b11_name":"文昌市","b12_code":"469005101","b12_name":"重兴镇","b13_name":"光大村","b13_code":"469005101208011","lon":110.627903,"lat":19.444275,"geo_name":"光大小学","geo_addr":"光大村"}},
{"type":"Feature","geometry":{"type":"Point","coordinates":[110.65767900000009,19.46786000000003]},"properties":{"OBJECTID":23197,"PID":"4690051012120000s002","WSCD":"WHFB120300000000","ADCD":"469005101212000","DANADCD":"4690051012100001n00r","CADCD":"469005","b11_code":"469005","b11_name":"文昌市","b12_code":"469005101","b12_name":"重兴镇","b13_name":"育英村","b13_code":"469005101212011","lon":110.657679,"lat":19.46786,"geo_name":"培英小学","geo_addr":"育英村"}},
{"type":"Feature","geometry":{"type":"Point","coordinates":[110.87606499999998,19.934165000000007]},"properties":{"OBJECTID":23198,"PID":"4690051112070000Q008","WSCD":"WHFB090100000000","ADCD":"469005111000000","DANADCD":"","CADCD":"469005","b11_code":"469005","b11_name":"文昌市","b12_code":"469005111","b12_name":"翁田镇","b13_name":"翁田圩社区","b13_code":"469005111001011","lon":110.876065,"lat":19.934165,"geo_name":"翁田中学","geo_addr":"翁田圩社区"}},
{"type":"Feature","geometry":{"type":"Point","coordinates":[110.85937499999994,19.919331999999997]},"properties":{"OBJECTID":23199,"PID":"4690051110020000Q007","WSCD":"WHFB090100000000","ADCD":"469005111002000","DANADCD":"4690051110020000Q02e","CADCD":"469005","b11_code":"469005","b11_name":"文昌市","b12_code":"469005111","b12_name":"翁田镇","b13_name":"排瑯村","b13_code":"469005111205011","lon":110.859375,"lat":19.919332,"geo_name":"文苑小学","geo_addr":"排瑯村"}},
{"type":"Feature","geometry":{"type":"Point","coordinates":[110.91203399999995,19.92677800000007]},"properties":{"OBJECTID":23200,"PID":"4690051112000000Q003","WSCD":"WMA0000A031YA000","ADCD":"469005111200000","DANADCD":"4690051112000000Q013","CADCD":"469005","b11_code":"469005","b11_name":"文昌市","b12_code":"469005111","b12_name":"翁田镇","b13_name":"博文村","b13_code":"469005111200011","lon":110.912034,"lat":19.926778,"geo_name":"博文小学","geo_addr":"博文村"}},
{"type":"Feature","geometry":{"type":"Point","coordinates":[110.85058100000015,19.971494000000064]},"properties":{"OBJECTID":23201,"PID":"4690051112030000Q006","WSCD":"WMA0000A031X0000","ADCD":"469005111203000","DANADCD":"4690051112030000Q00T","CADCD":"469005","b11_code":"469005","b11_name":"文昌市","b12_code":"469005111","b12_name":"翁田镇","b13_name":"茂山村","b13_code":"469005111203011","lon":110.850581,"lat":19.971494,"geo_name":"茂山小学","geo_addr":"茂山村"}},
{"type":"Feature","geometry":{"type":"Point","coordinates":[110.92512799999997,19.855100000000107]},"properties":{"OBJECTID":23202,"PID":"4690051112110000Q009","WSCD":"WMA0000A031Z0000","ADCD":"469005111211000","DANADCD":"4690051112110000Q02j","CADCD":"469005","b11_code":"469005","b11_name":"文昌市","b12_code":"469005111","b12_name":"翁田镇","b13_name":"新村村","b13_code":"469005111211011","lon":110.925128,"lat":19.8551,"geo_name":"新村小学","geo_addr":"新村村"}},
{"type":"Feature","geometry":{"type":"Point","coordinates":[110.69202200000001,19.99681099999998]},"properties":{"OBJECTID":23203,"PID":"4690051140000001n00f","WSCD":"WHFB090500000000","ADCD":"469005114000000","DANADCD":"","CADCD":"469005","b11_code":"469005","b11_name":"文昌市","b12_code":"469005114","b12_name":"锦山镇","b13_name":"锦山圩社区","b13_code":"469005114001014","lon":110.692022,"lat":19.996811,"geo_name":"锦山中学","geo_addr":"锦山圩社区"}},
{"type":"Feature","geometry":{"type":"Point","coordinates":[110.69491399999998,19.999860000000012]},"properties":{"OBJECTID":23204,"PID":"4690051142010001n00g","WSCD":"WHFB090500000000","ADCD":"469005114000000","DANADCD":"","CADCD":"469005","b11_code":"469005","b11_name":"文昌市","b12_code":"469005114","b12_name":"锦山镇","b13_name":"锦山圩社区","b13_code":"469005114001014","lon":110.694914,"lat":19.99986,"geo_name":"锦山中心小学","geo_addr":"锦山圩社区"}},
{"type":"Feature","geometry":{"type":"Point","coordinates":[110.68811,20.001096000000132]},"properties":{"OBJECTID":23205,"PID":"4690051140040001n00h","WSCD":"WHFB090500000000","ADCD":"469005114000000","DANADCD":"","CADCD":"469005","b11_code":"469005","b11_name":"文昌市","b12_code":"469005114","b12_name":"锦山镇","b13_name":"锦山圩社区","b13_code":"469005114001014","lon":110.68811,"lat":20.001096,"geo_name":"锦山第二小学","geo_addr":"锦山圩社区"}},
{"type":"Feature","geometry":{"type":"Point","coordinates":[110.57822699999997,20.02556899999996]},"properties":{"OBJECTID":23206,"PID":"4690051150020001n00i","WSCD":"WMA0000A03U00000","ADCD":"469005115002000","DANADCD":"","CADCD":"469005","b11_code":"469005","b11_name":"文昌市","b12_code":"469005115","b12_name":"铺前镇","b13_name":"铺港村","b13_code":"469005115205015","lon":110.578227,"lat":20.025569,"geo_name":"铺前中心小学","geo_addr":"铺港村"}},
{"type":"Feature","geometry":{"type":"Point","coordinates":[110.57725945236024,20.02920207581934]},"properties":{"OBJECTID":23207,"PID":"4690051152040001n00k","WSCD":"WMA0000A03U00000","ADCD":"469005115000000","DANADCD":"","CADCD":"469005","b11_code":"469005","b11_name":"文昌市","b12_code":"469005115","b12_name":"铺前镇","b13_name":"铺港村","b13_code":"469005115205015","lon":110.577259,"lat":20.029202,"geo_name":"铺前镇第二小学","geo_addr":"铺港村"}},
{"type":"Feature","geometry":{"type":"Point","coordinates":[110.57762100000025,20.03073400000011]},"properties":{"OBJECTID":23208,"PID":"4690051152080001n00l","WSCD":"WMA0000A03U00000","ADCD":"469005115000000","DANADCD":"","CADCD":"469005","b11_code":"469005","b11_name":"文昌市","b12_code":"469005115","b12_name":"铺前镇","b13_name":"铺前圩社区","b13_code":"469005115001015","lon":110.577621,"lat":20.030734,"geo_name":"文化中学","geo_addr":"铺前圩社区"}},
{"type":"Feature","geometry":{"type":"Point","coordinates":[110.580263,20.028336000000138]},"properties":{"OBJECTID":23209,"PID":"4690051152080001n00m","WSCD":"WMA0000A03U00000","ADCD":"469005115000000","DANADCD":"","CADCD":"469005","b11_code":"469005","b11_name":"文昌市","b12_code":"469005115","b12_name":"铺前镇","b13_name":"铺前圩社区","b13_code":"469005115001015","lon":110.580263,"lat":20.028336,"geo_name":"旺庄大酒店","geo_addr":"铺前圩社区"}},
{"type":"Feature","geometry":{"type":"Point","coordinates":[110.82569300000006,19.813763999999992]},"properties":{"OBJECTID":23210,"PID":"4690051162010001n00n","WSCD":"WHF68001EB000000","ADCD":"469005116201114","DANADCD":"4690051162010001n00o","CADCD":"469005","b11_code":"469005","b11_name":"文昌市","b12_code":"469005116","b12_name":"公坡镇","b13_name":"力群村","b13_code":"469005116201016","lon":110.825693,"lat":19.813764,"geo_name":"英敏学校","geo_addr":"力群村"}},
{"type":"Feature","geometry":{"type":"Point","coordinates":[110.75028199999997,19.618564999999933]},"properties":{"OBJECTID":23211,"PID":"4690051000010001n00o","WSCD":"WHFB110400000000","ADCD":"469005100000000","DANADCD":"4690051002040001n00y","CADCD":"469005","b11_code":"469005","b11_name":"文昌市","b12_code":"469005100","b12_name":"文城镇","b13_name":"文岭社区","b13_code":"469005100001010","lon":110.750282,"lat":19.618565,"geo_name":"文昌市中医院","geo_addr":"文岭社区"}},
{"type":"Feature","geometry":{"type":"Point","coordinates":[110.74671599999994,19.615535999999963]},"properties":{"OBJECTID":23212,"PID":"4690051000010001n00p","WSCD":"WHFB1103A0000000","ADCD":"469005100000000","DANADCD":"4690051002040001n00y","CADCD":"469005","b11_code":"469005","b11_name":"文昌市","b12_code":"469005100","b12_name":"文城镇","b13_name":"文岭社区","b13_code":"469005100001010","lon":110.746716,"lat":19.615536,"geo_name":"文昌市第二小学","geo_addr":"文岭社区"}},
{"type":"Feature","geometry":{"type":"Point","coordinates":[110.749327,19.619213000000116]},"properties":{"OBJECTID":23213,"PID":"4690051000010001n00q","WSCD":"WHFB110400000000","ADCD":"469005100000000","DANADCD":"4690051002040001n00y","CADCD":"469005","b11_code":"469005","b11_name":"文昌市","b12_code":"469005100","b12_name":"文城镇","b13_name":"文岭社区","b13_code":"469005100001010","lon":110.749327,"lat":19.619213,"geo_name":"孔庙","geo_addr":"文岭社区"}},
{"type":"Feature","geometry":{"type":"Point","coordinates":[110.59585600000003,19.412491000000045]},"properties":{"OBJECTID":23214,"PID":"4690051010010001n00r","WSCD":"WHFB130100000000","ADCD":"469005101001000","DANADCD":"4690051012030001n00w","CADCD":"469005","b11_code":"469005","b11_name":"文昌市","b12_code":"469005101","b12_name":"重兴镇","b13_name":"重兴圩社区","b13_code":"469005101001011","lon":110.595856,"lat":19.412491,"geo_name":"重兴信用合作社","geo_addr":"重兴圩社区"}},
{"type":"Feature","geometry":{"type":"Point","coordinates":[110.74456500000014,19.839361999999994]},"properties":{"OBJECTID":23215,"PID":"4690051120010001n00s","WSCD":"WHF68001D0000000","ADCD":"469005112001000","DANADCD":"","CADCD":"469005","b11_code":"469005","b11_name":"文昌市","b12_code":"469005112","b12_name":"抱罗镇","b13_name":"抱罗墟社区","b13_code":"469005112001012","lon":110.744565,"lat":19.839362,"geo_name":"罗峰中学","geo_addr":"抱罗墟社区"}},
{"type":"Feature","geometry":{"type":"Point","coordinates":[110.74566900000002,19.841989000000126]},"properties":{"OBJECTID":23216,"PID":"4690051120010001n00t","WSCD":"WHF68001D0000000","ADCD":"469005112001000","DANADCD":"","CADCD":"469005","b11_code":"469005","b11_name":"文昌市","b12_code":"469005112","b12_name":"抱罗镇","b13_name":"抱罗墟社区","b13_code":"469005112001012","lon":110.745669,"lat":19.841989,"geo_name":"抱罗卫生院","geo_addr":"抱罗墟社区"}},
{"type":"Feature","geometry":{"type":"Point","coordinates":[110.7448320000002,19.836545]},"properties":{"OBJECTID":23217,"PID":"4690051120010001n00u","WSCD":"WHF68001D0000000","ADCD":"469005112001000","DANADCD":"","CADCD":"469005","b11_code":"469005","b11_name":"文昌市","b12_code":"469005112","b12_name":"抱罗镇","b13_name":"抱罗墟社区","b13_code":"469005112001012","lon":110.744832,"lat":19.836545,"geo_name":"抱罗中心小学","geo_addr":"抱罗墟社区"}},
{"type":"Feature","geometry":{"type":"Point","coordinates":[110.87897900000019,19.79944900000004]},"properties":{"OBJECTID":23218,"PID":"4690051102110001n00v","WSCD":"WHF68001H0000000","ADCD":"469005110211000","DANADCD":"4690051102080000s02f","CADCD":"469005","b11_code":"469005","b11_name":"文昌市","b12_code":"469005110","b12_name":"昌洒镇","b13_name":"更新村","b13_code":"469005110207010","lon":110.878979,"lat":19.799449,"geo_name":"昌洒华侨学校","geo_addr":"更新村"}},
{"type":"Feature","geometry":{"type":"Point","coordinates":[110.74691500000006,19.84283099999999]},"properties":{"OBJECTID":23219,"PID":"4690051120010001n00w","WSCD":"WHF68001D0000000","ADCD":"469005112001000","DANADCD":"","CADCD":"469005","b11_code":"469005","b11_name":"文昌市","b12_code":"469005112","b12_name":"抱罗镇","b13_name":"抱罗墟社区","b13_code":"469005112001012","lon":110.746915,"lat":19.842831,"geo_name":"南方电网抱罗营业厅","geo_addr":"抱罗墟社区"}},
{"type":"Feature","geometry":{"type":"Point","coordinates":[110.84667200000001,19.65791500000006]},"properties":{"OBJECTID":23220,"PID":"4690051060010001n00x","WSCD":"WMA0000A03h00000","ADCD":"469005106001000","DANADCD":"","CADCD":"469005","b11_code":"469005","b11_name":"文昌市","b12_code":"469005106","b12_name":"东阁镇","b13_name":"东阁社区","b13_code":"469005106001016","lon":110.846672,"lat":19.657915,"geo_name":"东阁中心小学","geo_addr":"东阁社区"}},
{"type":"Feature","geometry":{"type":"Point","coordinates":[110.84766400000001,19.658323999999993]},"properties":{"OBJECTID":23221,"PID":"4690051060010001n00y","WSCD":"WMA0000A03h00000","ADCD":"469005106001000","DANADCD":"","CADCD":"469005","b11_code":"469005","b11_name":"文昌市","b12_code":"469005106","b12_name":"东阁镇","b13_name":"东阁社区","b13_code":"469005106001016","lon":110.847664,"lat":19.658324,"geo_name":"侠夫中学","geo_addr":"东阁社区"}},
{"type":"Feature","geometry":{"type":"Point","coordinates":[110.851788,19.57470500000005]},"properties":{"OBJECTID":23222,"PID":"4690051082060001n00z","WSCD":"WMA0000A031e0000","ADCD":"469005108206000","DANADCD":"","CADCD":"469005","b11_code":"469005","b11_name":"文昌市","b12_code":"469005108","b12_name":"东郊镇","b13_name":"清港村","b13_code":"469005108206018","lon":110.851788,"lat":19.574705,"geo_name":"东郊中学","geo_addr":"清港村"}},
{"type":"Feature","geometry":{"type":"Point","coordinates":[110.73705499999994,19.635177999999996]},"properties":{"OBJECTID":23223,"PID":"4690051002050001n00A","WSCD":"WHFB1001E0000000","ADCD":"469005100205000","DANADCD":"4690051002040001n00y","CADCD":"469005","b11_code":"469005","b11_name":"文昌市","b12_code":"469005100","b12_name":"文城镇","b13_name":"文岭社区","b13_code":"469005100001010","lon":110.737055,"lat":19.635178,"geo_name":"文昌田家炳中学","geo_addr":"文岭社区"}},
{"type":"Feature","geometry":{"type":"Point","coordinates":[110.73145599999998,19.4680130000001]},"properties":{"OBJECTID":23224,"PID":"4690051030020001n00B","WSCD":"WMA0000A031i0000","ADCD":"469005103002000","DANADCD":"4690051030000001n00v","CADCD":"469005","b11_code":"469005","b11_name":"文昌市","b12_code":"469005103","b12_name":"会文镇","b13_name":"会文社区","b13_code":"469005103001013","lon":110.731456,"lat":19.468013,"geo_name":"会文互联网农业小镇运营中心","geo_addr":"会文社区"}},
{"type":"Feature","geometry":{"type":"Point","coordinates":[110.67714100000012,19.788612999999998]},"properties":{"OBJECTID":23225,"PID":"4690051042070001n00C","WSCD":"WHFB0801EA000000","ADCD":"469005104207000","DANADCD":"","CADCD":"469005","b11_code":"469005","b11_name":"文昌市","b12_code":"469005104","b12_name":"东路镇","b13_name":"葫芦村","b13_code":"469005104207014","lon":110.677141,"lat":19.788613,"geo_name":"东路中心小学","geo_addr":"葫芦村"}},
{"type":"Feature","geometry":{"type":"Point","coordinates":[110.84951400000011,19.53593600000005]},"properties":{"OBJECTID":23226,"PID":"4690051082130001n00D","WSCD":"WMA0000A03f00000","ADCD":"469005108213000","DANADCD":"","CADCD":"469005","b11_code":"469005","b11_name":"文昌市","b12_code":"469005108","b12_name":"东郊镇","b13_name":"建华山村","b13_code":"469005108213018","lon":110.849514,"lat":19.535936,"geo_name":"东郊椰林（百莱玛度假村）","geo_addr":"建华山村"}},
{"type":"Feature","geometry":{"type":"Point","coordinates":[110.82030600000002,19.546613000000093]},"properties":{"OBJECTID":23227,"PID":"4690051002170001n00E","WSCD":"WMA0000A03l00000","ADCD":"469005100217000","DANADCD":"","CADCD":"469005","b11_code":"469005","b11_name":"文昌市","b12_code":"469005100","b12_name":"文城镇","b13_name":"燎原村","b13_code":"469005100217010","lon":110.820306,"lat":19.546613,"geo_name":"高隆度假村","geo_addr":"燎原村"}},
{"type":"Feature","geometry":{"type":"Point","coordinates":[110.8662760000002,19.747372999999982]},"properties":{"OBJECTID":23228,"PID":"4690051102080001n00F","WSCD":"WHF68001H0000000","ADCD":"469005110208000","DANADCD":"4690051102080000s02f","CADCD":"469005","b11_code":"469005","b11_name":"文昌市","b12_code":"469005110","b12_name":"昌洒镇","b13_name":"庆龄村","b13_code":"469005110208010","lon":110.866276,"lat":19.747373,"geo_name":"宋庆龄祖居","geo_addr":"庆龄村"}},
{"type":"Feature","geometry":{"type":"Point","coordinates":[109.26863400000025,19.156954999999982]},"properties":{"OBJECTID":21415,"PID":"46902520420000012009","WSCD":"WHF6110100000000","ADCD":"469025204200001","DANADCD":"4690252042000001203y","CADCD":"469025","b11_code":"469025","b11_name":"白沙黎族自治县","b12_code":"469025204","b12_name":"青松乡","b13_name":"益条村委会","b13_code":"469025204200014","lon":109.268634,"lat":19.156955,"geo_name":"青松乡青松乡中心学校","geo_addr":"益条村委会"}},
{"type":"Feature","geometry":{"type":"Point","coordinates":[109.17154700000009,19.342488000000117]},"properties":{"OBJECTID":21416,"PID":"4690254045000001200j","WSCD":"WHF65003K0000000","ADCD":"469025101201000","DANADCD":"4690251012010011200p","CADCD":"469025","b11_code":"469025","b11_name":"白沙黎族自治县","b12_code":"469025101","b12_name":"七坊镇","b13_name":"木棉村委会","b13_code":"469025101201011","lon":109.171547,"lat":19.342488,"geo_name":"木棉南华糖业公司","geo_addr":"木棉村委会"}},
{"type":"Feature","geometry":{"type":"Point","coordinates":[109.26716300000004,19.158863999999994]},"properties":{"OBJECTID":21417,"PID":"4690252042000001200n","WSCD":"WHF6110200000000","ADCD":"469025204200000","DANADCD":"4690252042000001203y","CADCD":"469025","b11_code":"469025","b11_name":"白沙黎族自治县","b12_code":"469025204","b12_name":"青松乡","b13_name":"益条村委会","b13_code":"469025204200014","lon":109.267163,"lat":19.158864,"geo_name":"青松中学","geo_addr":"益条村委会"}},
{"type":"Feature","geometry":{"type":"Point","coordinates":[109.105638,19.36969799999997]},"properties":{"OBJECTID":21418,"PID":"4690251022000001200y","WSCD":"WHF65001NA000000","ADCD":"469025102000000","DANADCD":"4690254084000001203s","CADCD":"469025","b11_code":"469025","b11_name":"白沙黎族自治县","b12_code":"469025102","b12_name":"邦溪镇","b13_name":"孟果村委会","b13_code":"469025102200012","lon":109.105638,"lat":19.369698,"geo_name":"邦溪镇中心学校","geo_addr":"孟果村委会"}},
{"type":"Feature","geometry":{"type":"Point","coordinates":[109.10720100000003,19.37042500000007]},"properties":{"OBJECTID":21419,"PID":"4690254084000001200z","WSCD":"WHF65001NA000000","ADCD":"469025102000000","DANADCD":"4690254084000001203s","CADCD":"469025","b11_code":"469025","b11_name":"白沙黎族自治县","b12_code":"469025102","b12_name":"邦溪镇","b13_name":"孟果村委会","b13_code":"469025102200012","lon":109.107201,"lat":19.370425,"geo_name":"邦溪镇中心幼儿园","geo_addr":"孟果村委会"}},
{"type":"Feature","geometry":{"type":"Point","coordinates":[109.37075800000025,19.28584400000011]},"properties":{"OBJECTID":21420,"PID":"4690251032000001200A","WSCD":"WHF65002C0000000","ADCD":"469025103000000","DANADCD":"4690251032000001203t","CADCD":"469025","b11_code":"469025","b11_name":"白沙黎族自治县","b12_code":"469025103","b12_name":"打安镇","b13_name":"打安村委会","b13_code":"469025103200013","lon":109.370758,"lat":19.285844,"geo_name":"打安镇卫生院","geo_addr":"打安村委会"}},
{"type":"Feature","geometry":{"type":"Point","coordinates":[109.36776599999996,19.285240999999985]},"properties":{"OBJECTID":21421,"PID":"4690251032000001200B","WSCD":"WHF6500400000000","ADCD":"469025103000000","DANADCD":"4690251032000001203t","CADCD":"469025","b11_code":"469025","b11_name":"白沙黎族自治县","b12_code":"469025103","b12_name":"打安镇","b13_name":"打安村委会","b13_code":"469025103200013","lon":109.367766,"lat":19.285241,"geo_name":"打安镇中心学校","geo_addr":"打安村委会"}},
{"type":"Feature","geometry":{"type":"Point","coordinates":[109.37215300000003,19.286095999999986]},"properties":{"OBJECTID":21422,"PID":"4690251032000001200C","WSCD":"WHF65002C0000000","ADCD":"469025103000000","DANADCD":"4690251032000001203t","CADCD":"469025","b11_code":"469025","b11_name":"白沙黎族自治县","b12_code":"469025103","b12_name":"打安镇","b13_name":"打安村委会","b13_code":"469025103200013","lon":109.372153,"lat":19.286096,"geo_name":"打安镇中心幼儿园","geo_addr":"打安村委会"}},
{"type":"Feature","geometry":{"type":"Point","coordinates":[109.35051299999992,19.28590000000014]},"properties":{"OBJECTID":21423,"PID":"4690254045150001200D","WSCD":"WHF6500400000000","ADCD":"469025103000000","DANADCD":"4690251032000001203t","CADCD":"469025","b11_code":"469025","b11_name":"白沙黎族自治县","b12_code":"469025103","b12_name":"打安镇","b13_name":"合水村委会","b13_code":"469025103202013","lon":109.350513,"lat":19.2859,"geo_name":"白沙县热作所","geo_addr":"合水村委会"}},
{"type":"Feature","geometry":{"type":"Point","coordinates":[109.35010600000004,19.285880000000077]},"properties":{"OBJECTID":21424,"PID":"4690254045150001200E","WSCD":"WHF65002C0000000","ADCD":"469025103000000","DANADCD":"4690251032000001203t","CADCD":"469025","b11_code":"469025","b11_name":"白沙黎族自治县","b12_code":"469025103","b12_name":"打安镇","b13_name":"合水村委会","b13_code":"469025103202013","lon":109.350106,"lat":19.28588,"geo_name":"白沙远龙橡胶开发有限公司","geo_addr":"合水村委会"}},
{"type":"Feature","geometry":{"type":"Point","coordinates":[109.16824800000018,19.2364520000001]},"properties":{"OBJECTID":21425,"PID":"4690252052020001200F","WSCD":"WHF6110900000000","ADCD":"469025205000000","DANADCD":"4690252052020001203v","CADCD":"469025","b11_code":"469025","b11_name":"白沙黎族自治县","b12_code":"469025205","b12_name":"金波乡","b13_name":"国营金波农场","b13_code":"469025205203015","lon":109.168248,"lat":19.236452,"geo_name":"金波医院","geo_addr":"国营金波农场"}},
{"type":"Feature","geometry":{"type":"Point","coordinates":[109.17220600000013,19.235900999999956]},"properties":{"OBJECTID":21426,"PID":"4690252052020001200G","WSCD":"WHF6110900000000","ADCD":"469025205000000","DANADCD":"4690252052020001203v","CADCD":"469025","b11_code":"469025","b11_name":"白沙黎族自治县","b12_code":"469025205","b12_name":"金波乡","b13_name":"国营金波农场","b13_code":"469025205203015","lon":109.172206,"lat":19.235901,"geo_name":"金波乡中心幼儿园","geo_addr":"国营金波农场"}},
{"type":"Feature","geometry":{"type":"Point","coordinates":[109.23722299999991,19.300851000000137]},"properties":{"OBJECTID":21427,"PID":"4690251012000001200H","WSCD":"WHF65001JA000000","ADCD":"469025101000000","DANADCD":"4690251012000001203x","CADCD":"469025","b11_code":"469025","b11_name":"白沙黎族自治县","b12_code":"469025101","b12_name":"七坊镇","b13_name":"国营龙江农场","b13_code":"469025101221011","lon":109.237223,"lat":19.300851,"geo_name":"白沙绿源实业有限公司","geo_addr":"国营龙江农场"}},
{"type":"Feature","geometry":{"type":"Point","coordinates":[109.2423970000001,19.309026000000074]},"properties":{"OBJECTID":21428,"PID":"4690251012000001200I","WSCD":"WHF65001JA000000","ADCD":"469025404000000","DANADCD":"4690251012000001203x","CADCD":"469025","b11_code":"469025","b11_name":"白沙黎族自治县","b12_code":"469025101","b12_name":"七坊镇","b13_name":"国营龙江农场","b13_code":"469025101221011","lon":109.242397,"lat":19.309026,"geo_name":"龙江中心学校","geo_addr":"国营龙江农场"}},
{"type":"Feature","geometry":{"type":"Point","coordinates":[109.23206700000003,19.30138900000003]},"properties":{"OBJECTID":21429,"PID":"4690251012030001200J","WSCD":"WHF65001J0000000","ADCD":"469025101000000","DANADCD":"4690251012000001203x","CADCD":"469025","b11_code":"469025","b11_name":"白沙黎族自治县","b12_code":"469025101","b12_name":"七坊镇","b13_name":"高石村委会","b13_code":"469025101200011","lon":109.232067,"lat":19.301389,"geo_name":"七坊中心学校","geo_addr":"高石村委会"}},
{"type":"Feature","geometry":{"type":"Point","coordinates":[109.17086700000016,19.416633999999988]},"properties":{"OBJECTID":21430,"PID":"4690254084020001200K","WSCD":"WHF6500E00000000","ADCD":"469025206000000","DANADCD":"4690254084020001203z","CADCD":"469025","b11_code":"469025","b11_name":"白沙黎族自治县","b12_code":"469025206","b12_name":"荣邦乡","b13_name":"国营芙蓉田农场","b13_code":"469025206210016","lon":109.170867,"lat":19.416634,"geo_name":"芙蓉田医院","geo_addr":"国营芙蓉田农场"}},
{"type":"Feature","geometry":{"type":"Point","coordinates":[109.35438199999999,19.28746499999994]},"properties":{"OBJECTID":21431,"PID":"4690254045150001200L","WSCD":"WHF6500400000000","ADCD":"469025103000000","DANADCD":"4690251032000001203t","CADCD":"469025","b11_code":"469025","b11_name":"白沙黎族自治县","b12_code":"469025103","b12_name":"打安镇","b13_name":"合水村委会","b13_code":"469025103202013","lon":109.354382,"lat":19.287465,"geo_name":"白沙合水糖业有限公司","geo_addr":"合水村委会"}},
{"type":"Feature","geometry":{"type":"Point","coordinates":[109.44460300000026,19.21827300000001]},"properties":{"OBJECTID":21432,"PID":"4690251000010001200M","WSCD":"WHF60001231XA000","ADCD":"469025100000000","DANADCD":"4690251000010001203C","CADCD":"469025","b11_code":"469025","b11_name":"白沙黎族自治县","b12_code":"469025100","b12_name":"牙叉镇","b13_name":"城东社区居委会","b13_code":"469025100002010","lon":109.444603,"lat":19.218273,"geo_name":"白沙思源实验学校","geo_addr":"城东社区居委会"}},
{"type":"Feature","geometry":{"type":"Point","coordinates":[109.45660700000013,19.324222000000134]},"properties":{"OBJECTID":21433,"PID":"4690252032000001200N","WSCD":"WHF60001211UA000","ADCD":"469025203000000","DANADCD":"4690252032000001203u","CADCD":"469025","b11_code":"469025","b11_name":"白沙黎族自治县","b12_code":"469025203","b12_name":"阜龙乡","b13_name":"可任村委会","b13_code":"469025203200013","lon":109.456607,"lat":19.324222,"geo_name":"阜龙乡中心学校","geo_addr":"可任村委会"}},
{"type":"Feature","geometry":{"type":"Point","coordinates":[109.40998000000013,19.07986900000003]},"properties":{"OBJECTID":21434,"PID":"4690252022000001200O","WSCD":"WHF600012B100000","ADCD":"469025202000000","DANADCD":"4690252022000001203w","CADCD":"469025","b11_code":"469025","b11_name":"白沙黎族自治县","b12_code":"469025200","b12_name":"细水乡","b13_name":"罗任村委会","b13_code":"469025200202010","lon":109.40998,"lat":19.079869,"geo_name":"南开乡中心幼儿园","geo_addr":"罗任村委会"}},
{"type":"Feature","geometry":{"type":"Point","coordinates":[109.16066100000018,19.639952000000108]},"properties":{"OBJECTID":22807,"PID":"4690031140000000r005","WSCD":"WMA0000A02600000","ADCD":"469003114000000","DANADCD":"","CADCD":"469003","b11_code":"469003","b11_name":"儋州市","b12_code":"469003114","b12_name":"排浦镇","b13_name":"排浦镇排浦社区居委会","b13_code":"469003114001014","lon":109.160661,"lat":19.639952,"geo_name":"排浦卫生院","geo_addr":"排浦镇排浦社区居委会"}},
{"type":"Feature","geometry":{"type":"Point","coordinates":[109.16201400000023,19.639932999999928]},"properties":{"OBJECTID":22808,"PID":"4690031140000000r006","WSCD":"WMA0000A02600000","ADCD":"469003114000000","DANADCD":"","CADCD":"469003","b11_code":"469003","b11_name":"儋州市","b12_code":"469003114","b12_name":"排浦镇","b13_name":"排浦镇排浦社区居委会","b13_code":"469003114001014","lon":109.162014,"lat":19.639933,"geo_name":"文豪幼儿园","geo_addr":"排浦镇排浦社区居委会"}},
{"type":"Feature","geometry":{"type":"Point","coordinates":[109.1591670000002,19.6402030000001]},"properties":{"OBJECTID":22809,"PID":"4690031140000000r007","WSCD":"WMA0000A02600000","ADCD":"469003114000000","DANADCD":"","CADCD":"469003","b11_code":"469003","b11_name":"儋州市","b12_code":"469003114","b12_name":"排浦镇","b13_name":"排浦镇排浦社区居委会","b13_code":"469003114001014","lon":109.159167,"lat":19.640203,"geo_name":"排浦小学","geo_addr":"排浦镇排浦社区居委会"}},
{"type":"Feature","geometry":{"type":"Point","coordinates":[109.30935600000021,19.716161000000113]},"properties":{"OBJECTID":22810,"PID":"4690031160000000r008","WSCD":"WMA0000A02900000","ADCD":"469003116000000","DANADCD":"","CADCD":"469003","b11_code":"469003","b11_name":"儋州市","b12_code":"469003116","b12_name":"新州镇","b13_name":"新州镇城区","b13_code":"469003116100016","lon":109.309356,"lat":19.716161,"geo_name":"新州中学","geo_addr":"新州镇城区"}},
{"type":"Feature","geometry":{"type":"Point","coordinates":[109.31126900000004,19.716455999999994]},"properties":{"OBJECTID":22811,"PID":"4690031160000000r009","WSCD":"WMA0000A02900000","ADCD":"469003116000000","DANADCD":"","CADCD":"469003","b11_code":"469003","b11_name":"儋州市","b12_code":"469003116","b12_name":"新州镇","b13_name":"新州镇城区","b13_code":"469003116100016","lon":109.311269,"lat":19.716456,"geo_name":"新州中心小学","geo_addr":"新州镇城区"}},
{"type":"Feature","geometry":{"type":"Point","coordinates":[109.309484,19.71509900000001]},"properties":{"OBJECTID":22812,"PID":"4690031160000000r00a","WSCD":"WMA0000A02900000","ADCD":"469003116000000","DANADCD":"","CADCD":"469003","b11_code":"469003","b11_name":"儋州市","b12_code":"469003116","b12_name":"新州镇","b13_name":"新州镇城区","b13_code":"469003116100016","lon":109.309484,"lat":19.715099,"geo_name":"新州卫生站","geo_addr":"新州镇城区"}},
{"type":"Feature","geometry":{"type":"Point","coordinates":[109.30938000000009,19.714395000000025]},"properties":{"OBJECTID":22813,"PID":"4690031160000000r00b","WSCD":"WMA0000A02900000","ADCD":"469003116000000","DANADCD":"","CADCD":"469003","b11_code":"469003","b11_name":"儋州市","b12_code":"469003116","b12_name":"新州镇","b13_name":"新州镇城区","b13_code":"469003116100016","lon":109.30938,"lat":19.714395,"geo_name":"新州实验小学","geo_addr":"新州镇城区"}},
{"type":"Feature","geometry":{"type":"Point","coordinates":[109.29315600000007,19.698935000000006]},"properties":{"OBJECTID":22824,"PID":"4690031162050000e00a","WSCD":"WMA0000A02800000","ADCD":"469003116213101","DANADCD":"","CADCD":"469003","b11_code":"469003","b11_name":"儋州市","b12_code":"469003116","b12_name":"新州镇","b13_name":"新州镇宣泮村委会","b13_code":"469003116213016","lon":109.293156,"lat":19.698935,"geo_name":"赤坎地村卫生室","geo_addr":"新州镇宣泮村委会"}},
{"type":"Feature","geometry":{"type":"Point","coordinates":[109.55220100000003,19.41274999999996]},"properties":{"OBJECTID":22825,"PID":"4690031022000001600m","WSCD":"WHF6B00100000000","ADCD":"469003102000000","DANADCD":"","CADCD":"469003","b11_code":"469003","b11_name":"儋州市","b12_code":"469003102","b12_name":"南丰镇","b13_name":"南丰镇南丰村委会","b13_code":"469003102200022","lon":109.552201,"lat":19.41275,"geo_name":"金色童年幼儿园","geo_addr":"南丰镇南丰村委会"}},
{"type":"Feature","geometry":{"type":"Point","coordinates":[109.55140100000011,19.41512499999999]},"properties":{"OBJECTID":22826,"PID":"4690031020000000e00j","WSCD":"WHF6B00100000000","ADCD":"469003102000000","DANADCD":"","CADCD":"469003","b11_code":"469003","b11_name":"儋州市","b12_code":"469003102","b12_name":"南丰镇","b13_name":"南丰镇南丰村委会","b13_code":"469003102200022","lon":109.551401,"lat":19.415125,"geo_name":"南丰中学","geo_addr":"南丰镇南丰村委会"}},
{"type":"Feature","geometry":{"type":"Point","coordinates":[109.552885,19.41436399999992]},"properties":{"OBJECTID":22827,"PID":"4690031020000000e00k","WSCD":"WHF6B00100000000","ADCD":"469003102000000","DANADCD":"","CADCD":"469003","b11_code":"469003","b11_name":"儋州市","b12_code":"469003102","b12_name":"南丰镇","b13_name":"南丰镇南丰村委会","b13_code":"469003102200022","lon":109.552885,"lat":19.414364,"geo_name":"南丰镇中心小学","geo_addr":"南丰镇南丰村委会"}},
{"type":"Feature","geometry":{"type":"Point","coordinates":[109.55201000000022,19.412118000000078]},"properties":{"OBJECTID":22828,"PID":"4690031020000000e00l","WSCD":"WHF6B00100000000","ADCD":"469003102000000","DANADCD":"","CADCD":"469003","b11_code":"469003","b11_name":"儋州市","b12_code":"469003102","b12_name":"南丰镇","b13_name":"南丰镇南丰村委会","b13_code":"469003102200022","lon":109.55201,"lat":19.412118,"geo_name":"南丰镇卫生站","geo_addr":"南丰镇南丰村委会"}},
{"type":"Feature","geometry":{"type":"Point","coordinates":[109.26512100000019,19.443228000000033]},"properties":{"OBJECTID":22829,"PID":"4690031040000000e00m","WSCD":"WHF65001I0000000","ADCD":"469003104000000","DANADCD":"","CADCD":"469003","b11_code":"469003","b11_name":"儋州市","b12_code":"469003104","b12_name":"雅星镇","b13_name":"雅星镇城区","b13_code":"469003104100014","lon":109.265121,"lat":19.443228,"geo_name":"雅星中学","geo_addr":"雅星镇城区"}},
{"type":"Feature","geometry":{"type":"Point","coordinates":[109.26199900000017,19.444931999999937]},"properties":{"OBJECTID":22830,"PID":"4690031040000000e00n","WSCD":"WHF65001I0000000","ADCD":"469003104000000","DANADCD":"","CADCD":"469003","b11_code":"469003","b11_name":"儋州市","b12_code":"469003104","b12_name":"雅星镇","b13_name":"雅星镇城区","b13_code":"469003104100014","lon":109.261999,"lat":19.444932,"geo_name":"雅星中心学校","geo_addr":"雅星镇城区"}},
{"type":"Feature","geometry":{"type":"Point","coordinates":[109.26512100000019,19.445988000000114]},"properties":{"OBJECTID":22831,"PID":"4690031040000000e00o","WSCD":"WHF65001I0000000","ADCD":"469003104000000","DANADCD":"","CADCD":"469003","b11_code":"469003","b11_name":"儋州市","b12_code":"469003104","b12_name":"雅星镇","b13_name":"雅星镇城区","b13_code":"469003104100014","lon":109.265121,"lat":19.445988,"geo_name":"雅星卫生站","geo_addr":"雅星镇城区"}},
{"type":"Feature","geometry":{"type":"Point","coordinates":[109.31327099999999,19.731227000000047]},"properties":{"OBJECTID":22832,"PID":"4690031162141020e00h","WSCD":"WMA0000A02900000","ADCD":"469003116214102","DANADCD":"","CADCD":"469003","b11_code":"469003","b11_name":"儋州市","b12_code":"469003116","b12_name":"新州镇","b13_name":"新州镇盐场村委会","b13_code":"469003116214016","lon":109.313271,"lat":19.731227,"geo_name":"盐场小学","geo_addr":"新州镇盐场村委会"}},
{"type":"Feature","geometry":{"type":"Point","coordinates":[109.30893300000002,19.73206799999997]},"properties":{"OBJECTID":22833,"PID":"4690031162141020e00i","WSCD":"WMA0000A02900000","ADCD":"469003116214103","DANADCD":"","CADCD":"469003","b11_code":"469003","b11_name":"儋州市","b12_code":"469003116","b12_name":"新州镇","b13_name":"新州镇盐场村委会","b13_code":"469003116214016","lon":109.308933,"lat":19.732068,"geo_name":"盐场卫生站","geo_addr":"新州镇盐场村委会"}},
{"type":"Feature","geometry":{"type":"Point","coordinates":[109.32110200000005,19.736017999999945]},"properties":{"OBJECTID":22834,"PID":"4690031162151010e00f","WSCD":"WMA0000A021G0000","ADCD":"469003116215101","DANADCD":"","CADCD":"469003","b11_code":"469003","b11_name":"儋州市","b12_code":"469003116","b12_name":"新州镇","b13_name":"新州镇宝山村委会","b13_code":"469003116215016","lon":109.321102,"lat":19.736018,"geo_name":"宝山小学","geo_addr":"新州镇宝山村委会"}},
{"type":"Feature","geometry":{"type":"Point","coordinates":[109.32231999999993,19.736738000000003]},"properties":{"OBJECTID":22835,"PID":"4690031162151010e00g","WSCD":"WMA0000A021G0000","ADCD":"469003116215101","DANADCD":"","CADCD":"469003","b11_code":"469003","b11_name":"儋州市","b12_code":"469003116","b12_name":"新州镇","b13_name":"新州镇宝山村委会","b13_code":"469003116215016","lon":109.32232,"lat":19.736738,"geo_name":"宝山卫生室","geo_addr":"新州镇宝山村委会"}},
{"type":"Feature","geometry":{"type":"Point","coordinates":[109.55445700000018,19.40913800000004]},"properties":{"OBJECTID":22814,"PID":"4690031022000001600e","WSCD":"WHF600012J100000","ADCD":"469003102200000","DANADCD":"","CADCD":"469003","b11_code":"469003","b11_name":"儋州市","b12_code":"469003102","b12_name":"南丰镇","b13_name":"南丰镇南丰村委会","b13_code":"469003102200022","lon":109.554457,"lat":19.409138,"geo_name":"龙华幼儿园","geo_addr":"南丰镇南丰村委会"}},
{"type":"Feature","geometry":{"type":"Point","coordinates":[109.55108700000005,19.414267999999993]},"properties":{"OBJECTID":22815,"PID":"4690031020000001600i","WSCD":"WHF600012J100000","ADCD":"469003102000000","DANADCD":"","CADCD":"469003","b11_code":"469003","b11_name":"儋州市","b12_code":"469003102","b12_name":"南丰镇","b13_name":"南丰镇南丰村委会","b13_code":"469003102200022","lon":109.551087,"lat":19.414268,"geo_name":"馨乐礼仪幼儿园","geo_addr":"南丰镇南丰村委会"}},
{"type":"Feature","geometry":{"type":"Point","coordinates":[109.54930200000001,19.417389000000128]},"properties":{"OBJECTID":22816,"PID":"4690031022000001600j","WSCD":"WHF6B00100000000","ADCD":"469003102000000","DANADCD":"","CADCD":"469003","b11_code":"469003","b11_name":"儋州市","b12_code":"469003102","b12_name":"南丰镇","b13_name":"南丰镇南丰村委会","b13_code":"469003102200022","lon":109.549302,"lat":19.417389,"geo_name":"斯诺幼儿园","geo_addr":"南丰镇南丰村委会"}},
{"type":"Feature","geometry":{"type":"Point","coordinates":[109.54953900000004,19.41681799999992]},"properties":{"OBJECTID":22817,"PID":"4690031022000001600k","WSCD":"WHF6B00100000000","ADCD":"469003102000000","DANADCD":"","CADCD":"469003","b11_code":"469003","b11_name":"儋州市","b12_code":"469003102","b12_name":"南丰镇","b13_name":"南丰镇南丰村委会","b13_code":"469003102200022","lon":109.549539,"lat":19.416818,"geo_name":"阳光幼儿园","geo_addr":"南丰镇南丰村委会"}},
{"type":"Feature","geometry":{"type":"Point","coordinates":[109.552119,19.411441000000025]},"properties":{"OBJECTID":22818,"PID":"4690031022000001600l","WSCD":"WHF6B00100000000","ADCD":"469003102000000","DANADCD":"","CADCD":"469003","b11_code":"469003","b11_name":"儋州市","b12_code":"469003102","b12_name":"南丰镇","b13_name":"南丰镇南丰村委会","b13_code":"469003102200022","lon":109.552119,"lat":19.411441,"geo_name":"后岭幼儿园","geo_addr":"南丰镇南丰村委会"}},
{"type":"Feature","geometry":{"type":"Point","coordinates":[109.2930060000001,19.652662000000134]},"properties":{"OBJECTID":22819,"PID":"4690031110010000e00b","WSCD":"WHFB0302GCB00000","ADCD":"469003111000000","DANADCD":"","CADCD":"469003","b11_code":"469003","b11_name":"儋州市","b12_code":"469003111","b12_name":"王五镇","b13_name":"王五镇城区","b13_code":"469003111100011","lon":109.293006,"lat":19.652662,"geo_name":"艺才幼儿园","geo_addr":"王五镇城区"}},
{"type":"Feature","geometry":{"type":"Point","coordinates":[109.29226299999993,19.653385999999955]},"properties":{"OBJECTID":22820,"PID":"4690031110010000e00c","WSCD":"WHFB0302GCB00000","ADCD":"469003111000000","DANADCD":"","CADCD":"469003","b11_code":"469003","b11_name":"儋州市","b12_code":"469003111","b12_name":"王五镇","b13_name":"王五镇城区","b13_code":"469003111100011","lon":109.292263,"lat":19.653386,"geo_name":"光明幼儿园","geo_addr":"王五镇城区"}},
{"type":"Feature","geometry":{"type":"Point","coordinates":[109.29281499999996,19.65566999999993]},"properties":{"OBJECTID":22821,"PID":"4690031110010000e00d","WSCD":"WHFB0302GCB00000","ADCD":"469003111000000","DANADCD":"","CADCD":"469003","b11_code":"469003","b11_name":"儋州市","b12_code":"469003111","b12_name":"王五镇","b13_name":"王五镇王五社区居委会","b13_code":"469003111001011","lon":109.292815,"lat":19.65567,"geo_name":"王五小学","geo_addr":"王五镇王五社区居委会"}},
{"type":"Feature","geometry":{"type":"Point","coordinates":[109.2949660000001,19.65254800000008]},"properties":{"OBJECTID":22822,"PID":"4690031110010000e00e","WSCD":"WHFB0302GCB00000","ADCD":"469003111000000","DANADCD":"","CADCD":"469003","b11_code":"469003","b11_name":"儋州市","b12_code":"469003111","b12_name":"王五镇","b13_name":"王五镇城区","b13_code":"469003111100011","lon":109.294966,"lat":19.652548,"geo_name":"王五中学","geo_addr":"王五镇城区"}},
{"type":"Feature","geometry":{"type":"Point","coordinates":[109.29545700000023,19.69855600000011]},"properties":{"OBJECTID":22823,"PID":"4690031162050000e009","WSCD":"WMA0000A02800000","ADCD":"469003116213101","DANADCD":"","CADCD":"469003","b11_code":"469003","b11_name":"儋州市","b12_code":"469003116","b12_name":"新州镇","b13_name":"新州镇宣泮村委会","b13_code":"469003116213016","lon":109.295457,"lat":19.698556,"geo_name":"赤坎地小学","geo_addr":"新州镇宣泮村委会"}},
{"type":"Feature","geometry":{"type":"Point","coordinates":[108.99171700000005,19.465099000000066]},"properties":{"OBJECTID":22836,"PID":"4690031082010000r00q","WSCD":"WHF6500K00000000","ADCD":"469003108201000","DANADCD":"","CADCD":"469003","b11_code":"469003","b11_name":"儋州市","b12_code":"469003108","b12_name":"海头镇","b13_name":"海头镇珠江村委会","b13_code":"469003108201018","lon":108.991717,"lat":19.465099,"geo_name":"新政村卫生站","geo_addr":"海头镇珠江村委会"}},
{"type":"Feature","geometry":{"type":"Point","coordinates":[108.991534,19.465870999999993]},"properties":{"OBJECTID":22837,"PID":"4690031082010000r00r","WSCD":"WHF6500K00000000","ADCD":"469003108201000","DANADCD":"","CADCD":"469003","b11_code":"469003","b11_name":"儋州市","b12_code":"469003108","b12_name":"海头镇","b13_name":"海头镇珠江村委会","b13_code":"469003108201018","lon":108.991534,"lat":19.465871,"geo_name":"珠江小学","geo_addr":"海头镇珠江村委会"}},
{"type":"Feature","geometry":{"type":"Point","coordinates":[110.44500800000003,18.78828800000008]},"properties":{"OBJECTID":21513,"PID":"46900610022900015001","WSCD":"WMA0000A041L0000","ADCD":"469006100229000","DANADCD":"4690061002290000M03C","CADCD":"469006","b11_code":"469006","b11_name":"万宁市","b12_code":"469006100","b12_name":"万城镇","b13_name":"南岛村委会","b13_code":"469006100227010","lon":110.445008,"lat":18.788288,"geo_name":"北坡中心卫生院","geo_addr":"南岛村委会"}},
{"type":"Feature","geometry":{"type":"Point","coordinates":[110.45070000000004,18.797207000000014]},"properties":{"OBJECTID":21514,"PID":"46900610022900015002","WSCD":"WMA0000A041L0000","ADCD":"469006100229000","DANADCD":"4690061002290000M03F","CADCD":"469006","b11_code":"469006","b11_name":"万宁市","b12_code":"469006100","b12_name":"万城镇","b13_name":"北坡村委会","b13_code":"469006100229010","lon":110.4507,"lat":18.797207,"geo_name":"北坡中学","geo_addr":"北坡村委会"}},
{"type":"Feature","geometry":{"type":"Point","coordinates":[110.440156,18.74003600000009]},"properties":{"OBJECTID":21713,"PID":"4690061052080000Y005","WSCD":"WHF6600116000000","ADCD":"469006105208000","DANADCD":"4690061052070000b00j","CADCD":"469006","b11_code":"469006","b11_name":"万宁市","b12_code":"469006105","b12_name":"东澳镇","b13_name":"新群村委会","b13_code":"469006105208015","lon":110.440156,"lat":18.740036,"geo_name":"新群卫生室","geo_addr":"新群村委会"}},
{"type":"Feature","geometry":{"type":"Point","coordinates":[110.44026600000007,18.739355000000046]},"properties":{"OBJECTID":21714,"PID":"4690061052080000Y006","WSCD":"WHF6600116000000","ADCD":"469006105208000","DANADCD":"4690061052070000b00j","CADCD":"469006","b11_code":"469006","b11_name":"万宁市","b12_code":"469006105","b12_name":"东澳镇","b13_name":"新群村委会","b13_code":"469006105208015","lon":110.440266,"lat":18.739355,"geo_name":"新群小学","geo_addr":"新群村委会"}},
{"type":"Feature","geometry":{"type":"Point","coordinates":[110.40766500000007,18.749510000000043]},"properties":{"OBJECTID":21715,"PID":"4690061052170000Y003","WSCD":"WMA0000A041N0000","ADCD":"469006105217100","DANADCD":"4690061052170000M03o","CADCD":"469006","b11_code":"469006","b11_name":"万宁市","b12_code":"469006105","b12_name":"东澳镇","b13_name":"明星村委会","b13_code":"469006105217015","lon":110.407665,"lat":18.74951,"geo_name":"明星小学","geo_addr":"明星村委会"}},
{"type":"Feature","geometry":{"type":"Point","coordinates":[110.21724399999994,18.79856500000011]},"properties":{"OBJECTID":21716,"PID":"4690061072050000Y001","WSCD":"WHF6600121F00000","ADCD":"469006107205000","DANADCD":"4690061072050000M05X","CADCD":"469006","b11_code":"469006","b11_name":"万宁市","b12_code":"469006107","b12_name":"长丰镇","b13_name":"七甲村委会","b13_code":"469006107205017","lon":110.217244,"lat":18.798565,"geo_name":"七甲小学","geo_addr":"七甲村委会"}},
{"type":"Feature","geometry":{"type":"Point","coordinates":[110.47412599999996,18.903580999999917]},"properties":{"OBJECTID":21717,"PID":"46900610220000015005","WSCD":"WMA0000A04I00000","ADCD":"469006102200000","DANADCD":"4690061022000000M03r","CADCD":"469006","b11_code":"469006","b11_name":"万宁市","b12_code":"469006102","b12_name":"和乐镇","b13_name":"和乐村委会","b13_code":"469006102200012","lon":110.474126,"lat":18.903581,"geo_name":"和乐小学","geo_addr":"和乐村委会"}},
{"type":"Feature","geometry":{"type":"Point","coordinates":[110.39631099999997,18.929957]},"properties":{"OBJECTID":21718,"PID":"46900610321900015006","WSCD":"WHFB1602B0000000","ADCD":"469006103219000","DANADCD":"4690061032190000b00f","CADCD":"469006","b11_code":"469006","b11_name":"万宁市","b12_code":"469006103","b12_name":"后安镇","b13_name":"坡头村委会","b13_code":"469006103219013","lon":110.396311,"lat":18.929957,"geo_name":"龙堀坡小学","geo_addr":"坡头村委会"}},
{"type":"Feature","geometry":{"type":"Point","coordinates":[110.48539900000014,18.89521600000006]},"properties":{"OBJECTID":21719,"PID":"4690061022140000Y002","WSCD":"WMA0000A04J00000","ADCD":"469006102201000","DANADCD":"4690061022020000M03u","CADCD":"469006","b11_code":"469006","b11_name":"万宁市","b12_code":"469006102","b12_name":"和乐镇","b13_name":"乐群村委会","b13_code":"469006102201012","lon":110.485399,"lat":18.895216,"geo_name":"乐群小学","geo_addr":"乐群村委会"}},
{"type":"Feature","geometry":{"type":"Point","coordinates":[110.46745900000025,18.89156600000001]},"properties":{"OBJECTID":21720,"PID":"4690061022010000Y003","WSCD":"WMA0000A04I00000","ADCD":"469006102212000","DANADCD":"4690061022130000b008","CADCD":"469006","b11_code":"469006","b11_name":"万宁市","b12_code":"469006102","b12_name":"和乐镇","b13_name":"琉川村委会","b13_code":"469006102212012","lon":110.467459,"lat":18.891566,"geo_name":"琉川小学","geo_addr":"琉川村委会"}},
{"type":"Feature","geometry":{"type":"Point","coordinates":[110.46372200000013,18.893659000000014]},"properties":{"OBJECTID":21721,"PID":"4690061022120000Y004","WSCD":"WMA0000A04J00000","ADCD":"469006102213000","DANADCD":"4690061022130000b009","CADCD":"469006","b11_code":"469006","b11_name":"万宁市","b12_code":"469006102","b12_name":"和乐镇","b13_name":"芳市村委会","b13_code":"469006102213012","lon":110.463722,"lat":18.893659,"geo_name":"芳市小学","geo_addr":"芳市村委会"}},
{"type":"Feature","geometry":{"type":"Point","coordinates":[110.15073499999994,18.68784700000009]},"properties":{"OBJECTID":21722,"PID":"4690061102030000Y007","WSCD":"WHF6600124000000","ADCD":"469006110000000","DANADCD":"4690061102030000Y00b","CADCD":"469006","b11_code":"469006","b11_name":"万宁市","b12_code":"469006110","b12_name":"南桥镇","b13_name":"南林农场","b13_code":"469006110210010","lon":110.150735,"lat":18.687847,"geo_name":"南林中学","geo_addr":"南林农场"}},
{"type":"Feature","geometry":{"type":"Point","coordinates":[110.15210500000012,18.68679999999995]},"properties":{"OBJECTID":21723,"PID":"4690061102030000Y006","WSCD":"WHF6600124000000","ADCD":"469006110000000","DANADCD":"4690061102030000Y00b","CADCD":"469006","b11_code":"469006","b11_name":"万宁市","b12_code":"469006110","b12_name":"南桥镇","b13_name":"南林农场","b13_code":"469006110210010","lon":110.152105,"lat":18.6868,"geo_name":"南林中心学校","geo_addr":"南林农场"}},
{"type":"Feature","geometry":{"type":"Point","coordinates":[110.15169499999996,18.68770500000005]},"properties":{"OBJECTID":21724,"PID":"4690061102030000Y008","WSCD":"WHF6600124000000","ADCD":"469006110000000","DANADCD":"4690061102030000Y00b","CADCD":"469006","b11_code":"469006","b11_name":"万宁市","b12_code":"469006110","b12_name":"南桥镇","b13_name":"南林农场","b13_code":"469006110210010","lon":110.151695,"lat":18.687705,"geo_name":"南桥镇卫生院","geo_addr":"南林农场"}},
{"type":"Feature","geometry":{"type":"Point","coordinates":[110.31266900000008,18.751985000000047]},"properties":{"OBJECTID":21725,"PID":"4690061062060000b001","WSCD":"WHF6600123H00000","ADCD":"469006106000000","DANADCD":"46900610620600015006","CADCD":"469006","b11_code":"469006","b11_name":"万宁市","b12_code":"469006106","b12_name":"礼纪镇","b13_name":"礼明村委会","b13_code":"469006106206016","lon":110.312669,"lat":18.751985,"geo_name":"佳佳幼儿园","geo_addr":"礼明村委会"}},
{"type":"Feature","geometry":{"type":"Point","coordinates":[110.18899500000009,18.85778800000014]},"properties":{"OBJECTID":21726,"PID":"46900611120200015008","WSCD":"WHF6200122T00000","ADCD":"469006111000000","DANADCD":"4690061112020001500b","CADCD":"469006","b11_code":"469006","b11_name":"万宁市","b12_code":"469006111","b12_name":"三更罗镇","b13_name":"新中农场","b13_code":"469006111505011","lon":110.188995,"lat":18.857788,"geo_name":"阳春幼儿园","geo_addr":"新中农场"}},
{"type":"Feature","geometry":{"type":"Point","coordinates":[110.45036700000003,18.794464999999946]},"properties":{"OBJECTID":21515,"PID":"46900610023000015003","WSCD":"WMA0000A041L0000","ADCD":"469006100229000","DANADCD":"4690061002290000M03E","CADCD":"469006","b11_code":"469006","b11_name":"万宁市","b12_code":"469006100","b12_name":"万城镇","b13_name":"北坡村委会","b13_code":"469006100229010","lon":110.450367,"lat":18.794465,"geo_name":"北坡第二中学","geo_addr":"北坡村委会"}},
{"type":"Feature","geometry":{"type":"Point","coordinates":[110.45387399999998,18.793228000000113]},"properties":{"OBJECTID":21516,"PID":"4690061002290000Y001","WSCD":"WMA0000A044K0000","ADCD":"469006100227103","DANADCD":"4690061002270000M045","CADCD":"469006","b11_code":"469006","b11_name":"万宁市","b12_code":"469006100","b12_name":"万城镇","b13_name":"南岛村委会","b13_code":"469006100227010","lon":110.453874,"lat":18.793228,"geo_name":"南坡小学","geo_addr":"南岛村委会"}},
{"type":"Feature","geometry":{"type":"Point","coordinates":[110.39044000000001,18.802361000000133]},"properties":{"OBJECTID":21727,"PID":"4690061002120000x001","WSCD":"WMA0000A042K0000","ADCD":"469006100000000","DANADCD":"4690061002080000x00b","CADCD":"469006","b11_code":"469006","b11_name":"万宁市","b12_code":"469006100","b12_name":"万城镇","b13_name":"仁里社区居委会","b13_code":"469006100005010","lon":110.39044,"lat":18.802361,"geo_name":"后朗小学","geo_addr":"仁里社区居委会"}},
{"type":"Feature","geometry":{"type":"Point","coordinates":[110.43268199999994,18.771851999999967]},"properties":{"OBJECTID":21517,"PID":"4690061002210000Y001","WSCD":"WMA0000A041M0000","ADCD":"469006100221000","DANADCD":"4690061002210000M03I","CADCD":"469006","b11_code":"469006","b11_name":"万宁市","b12_code":"469006100","b12_name":"万城镇","b13_name":"大芒村委会","b13_code":"469006100221010","lon":110.432682,"lat":18.771852,"geo_name":"大芒村小学","geo_addr":"大芒村委会"}},
{"type":"Feature","geometry":{"type":"Point","coordinates":[110.43298299999998,18.772538000000054]},"properties":{"OBJECTID":21518,"PID":"4690061002210000Y002","WSCD":"WMA0000A041M0000","ADCD":"469006100221000","DANADCD":"4690061002210000M03J","CADCD":"469006","b11_code":"469006","b11_name":"万宁市","b12_code":"469006100","b12_name":"万城镇","b13_name":"大芒村委会","b13_code":"469006100221010","lon":110.432983,"lat":18.772538,"geo_name":"大芒村居委会卫生院","geo_addr":"大芒村委会"}},
{"type":"Feature","geometry":{"type":"Point","coordinates":[110.42980200000022,18.74506100000002]},"properties":{"OBJECTID":21519,"PID":"4690061052050000Y004","WSCD":"WMA0000A041N0000","ADCD":"469006105204101","DANADCD":"4690061052040000M06M","CADCD":"469006","b11_code":"469006","b11_name":"万宁市","b12_code":"469006105","b12_name":"东澳镇","b13_name":"分洪村委会","b13_code":"469006105204015","lon":110.429802,"lat":18.745061,"geo_name":"明星小学","geo_addr":"分洪村委会"}},
{"type":"Feature","geometry":{"type":"Point","coordinates":[110.43801400000024,18.742372999999986]},"properties":{"OBJECTID":21520,"PID":"4690061052070000Y007","WSCD":"WHF6600116000000","ADCD":"469006105207101","DANADCD":"4690061052070000M03l","CADCD":"469006","b11_code":"469006","b11_name":"万宁市","b12_code":"469006105","b12_name":"东澳镇","b13_name":"集丰村委会","b13_code":"469006105207015","lon":110.438014,"lat":18.742373,"geo_name":"集丰进雄小学","geo_addr":"集丰村委会"}},
{"type":"Feature","geometry":{"type":"Point","coordinates":[110.34792500000003,18.79602100000011]},"properties":{"OBJECTID":21728,"PID":"4690061072110000M001","WSCD":"WHF660012B000000","ADCD":"469006107000000","DANADCD":"4690061062030000M06r","CADCD":"469006","b11_code":"469006","b11_name":"万宁市","b12_code":"469006107","b12_name":"长丰镇","b13_name":"马坡村委会","b13_code":"469006107211017","lon":110.347925,"lat":18.796021,"geo_name":"大洲岛度假山庄","geo_addr":"马坡村委会"}},
{"type":"Feature","geometry":{"type":"Point","coordinates":[110.34453600000012,18.795660000000055]},"properties":{"OBJECTID":21729,"PID":"4690061072110000M002","WSCD":"WHF660012B000000","ADCD":"469006107000000","DANADCD":"4690061062030000M06r","CADCD":"469006","b11_code":"469006","b11_name":"万宁市","b12_code":"469006107","b12_name":"长丰镇","b13_name":"马坡村委会","b13_code":"469006107211017","lon":110.344536,"lat":18.79566,"geo_name":"万宁市职业技术学校","geo_addr":"马坡村委会"}},
{"type":"Feature","geometry":{"type":"Point","coordinates":[110.34057700000011,18.794917000000055]},"properties":{"OBJECTID":21730,"PID":"4690061072110000M003","WSCD":"WHF660012B000000","ADCD":"469006107000000","DANADCD":"4690061062030000M06r","CADCD":"469006","b11_code":"469006","b11_name":"万宁市","b12_code":"469006107","b12_name":"长丰镇","b13_name":"马坡村委会","b13_code":"469006107211017","lon":110.340577,"lat":18.794917,"geo_name":"万宁思源实验学校","geo_addr":"马坡村委会"}},
{"type":"Feature","geometry":{"type":"Point","coordinates":[110.18347900000003,18.862274999999954]},"properties":{"OBJECTID":21731,"PID":"4690061112020000M007","WSCD":"WHF6200122T00000","ADCD":"469006111000000","DANADCD":"4690061112020001500b","CADCD":"469006","b11_code":"469006","b11_name":"万宁市","b12_code":"469006111","b12_name":"三更罗镇","b13_name":"新中农场","b13_code":"469006111505011","lon":110.183479,"lat":18.862275,"geo_name":"三更罗卫生院","geo_addr":"新中农场"}},
{"type":"Feature","geometry":{"type":"Point","coordinates":[110.37912800000004,18.791061000000013]},"properties":{"OBJECTID":21732,"PID":"4690061000090000M008","WSCD":"WMA0000A042K0000","ADCD":"469006100000000","DANADCD":"4690061002080000x00b","CADCD":"469006","b11_code":"469006","b11_name":"万宁市","b12_code":"469006100","b12_name":"万城镇","b13_name":"裕民村委会","b13_code":"469006100212010","lon":110.379128,"lat":18.791061,"geo_name":"万宁市第二中学","geo_addr":"裕民村委会"}},
{"type":"Feature","geometry":{"type":"Point","coordinates":[110.39684999999997,18.828366000000074]},"properties":{"OBJECTID":21733,"PID":"4690061002090000M009","WSCD":"WMA0000A044K0000","ADCD":"469006100000000","DANADCD":"4690061002090000M03N","CADCD":"469006","b11_code":"469006","b11_name":"万宁市","b12_code":"469006100","b12_name":"万城镇","b13_name":"东星村委会","b13_code":"469006100209010","lon":110.39685,"lat":18.828366,"geo_name":"海之南实验学校","geo_addr":"东星村委会"}},
{"type":"Feature","geometry":{"type":"Point","coordinates":[110.39472699999999,18.85528899999997]},"properties":{"OBJECTID":21734,"PID":"4690061042050000M00g","WSCD":"WHFB170600000000","ADCD":"469006104000000","DANADCD":"4690061042060000M06N","CADCD":"469006","b11_code":"469006","b11_name":"万宁市","b12_code":"469006104","b12_name":"大茂镇","b13_name":"群乐村委会","b13_code":"469006104205014","lon":110.394727,"lat":18.855289,"geo_name":"万宁市大茂初级中学","geo_addr":"群乐村委会"}},
{"type":"Feature","geometry":{"type":"Point","coordinates":[110.31198800000004,18.74529200000012]},"properties":{"OBJECTID":21735,"PID":"4690061062060000M00h","WSCD":"WHF6600123H00000","ADCD":"469006106000000","DANADCD":"46900610620600015006","CADCD":"469006","b11_code":"469006","b11_name":"万宁市","b12_code":"469006106","b12_name":"礼纪镇","b13_name":"礼明村委会","b13_code":"469006106206016","lon":110.311988,"lat":18.745292,"geo_name":"万宁市礼纪中学","geo_addr":"礼明村委会"}},
{"type":"Feature","geometry":{"type":"Point","coordinates":[110.35557700000004,18.791051000000095]},"properties":{"OBJECTID":21736,"PID":"4690061002110000M00i","WSCD":"WHF660012C000000","ADCD":"469006100000000","DANADCD":"4690061002080000x00b","CADCD":"469006","b11_code":"469006","b11_name":"万宁市","b12_code":"469006100","b12_name":"万城镇","b13_name":"滨湖村委会","b13_code":"469006100211010","lon":110.355577,"lat":18.791051,"geo_name":"万宁市振华学校","geo_addr":"滨湖村委会"}},
{"type":"Feature","geometry":{"type":"Point","coordinates":[110.5070150000002,19.004120000000057]},"properties":{"OBJECTID":21737,"PID":"4690061012080000M00j","WSCD":"WMA0000A041H0000","ADCD":"469006108000000","DANADCD":"4690061082040000M06m","CADCD":"469006","b11_code":"469006","b11_name":"万宁市","b12_code":"469006101","b12_name":"龙滚镇","b13_name":"坡罗村委会","b13_code":"469006101208011","lon":110.507015,"lat":19.00412,"geo_name":"山根中心学校","geo_addr":"坡罗村委会"}},
{"type":"Feature","geometry":{"type":"Point","coordinates":[110.123764,18.66650400000003]},"properties":{"OBJECTID":21738,"PID":"4690061102020000M00k","WSCD":"WHF6600123000000","ADCD":"469006110000000","DANADCD":"4690061102010000M06c","CADCD":"469006","b11_code":"469006","b11_name":"万宁市","b12_code":"469006110","b12_name":"南桥镇","b13_name":"南林农场","b13_code":"469006110210010","lon":110.123764,"lat":18.666504,"geo_name":"万宁市南桥小学","geo_addr":"南林农场"}},
{"type":"Feature","geometry":{"type":"Point","coordinates":[110.19341500000007,18.73439899999994]},"properties":{"OBJECTID":21739,"PID":"4690061102040000M00l","WSCD":"WHF6600126000000","ADCD":"469006110000000","DANADCD":"46900611020400015005","CADCD":"469006","b11_code":"469006","b11_name":"万宁市","b12_code":"469006106","b12_name":"礼纪镇","b13_name":"兴隆热带作物试验站","b13_code":"469006106516016","lon":110.193415,"lat":18.734399,"geo_name":"兴隆热带植物园","geo_addr":"兴隆热带作物试验站"}},
{"type":"Feature","geometry":{"type":"Point","coordinates":[108.9947130000001,19.466608000000008]},"properties":{"OBJECTID":22838,"PID":"4690031082011000r00p","WSCD":"WHF6500K00000000","ADCD":"469003108201100","DANADCD":"","CADCD":"469003","b11_code":"469003","b11_name":"儋州市","b12_code":"469003108","b12_name":"海头镇","b13_name":"海头镇珠江村委会","b13_code":"469003108201018","lon":108.994713,"lat":19.466608,"geo_name":"加兰村老年文化活动中心","geo_addr":"海头镇珠江村委会"}},
{"type":"Feature","geometry":{"type":"Point","coordinates":[109.42016200000006,19.50728199999992]},"properties":{"OBJECTID":22839,"PID":"4690031032030001600n","WSCD":"WHF6B001H0000000","ADCD":"469003103203102","DANADCD":"","CADCD":"469003","b11_code":"469003","b11_name":"儋州市","b12_code":"469003103","b12_name":"大成镇","b13_name":"大成镇可运村委会","b13_code":"469003103203013","lon":109.420162,"lat":19.507282,"geo_name":"可运小学","geo_addr":"大成镇可运村委会"}},
{"type":"Feature","geometry":{"type":"Point","coordinates":[109.32055800000018,19.651685999999984]},"properties":{"OBJECTID":22840,"PID":"4690031112010001600o","WSCD":"WHFB0303G0000000","ADCD":"469003111206100","DANADCD":"","CADCD":"469003","b11_code":"469003","b11_name":"儋州市","b12_code":"469003111","b12_name":"王五镇","b13_name":"王五镇光村村委会","b13_code":"469003111206011","lon":109.320558,"lat":19.651686,"geo_name":"妙山小学","geo_addr":"王五镇光村村委会"}},
{"type":"Feature","geometry":{"type":"Point","coordinates":[109.31997700000005,19.650600999999938]},"properties":{"OBJECTID":22841,"PID":"4690031112010001600p","WSCD":"WHFB0303G0000000","ADCD":"469003111206100","DANADCD":"","CADCD":"469003","b11_code":"469003","b11_name":"儋州市","b12_code":"469003111","b12_name":"王五镇","b13_name":"王五镇光村村委会","b13_code":"469003111206011","lon":109.319977,"lat":19.650601,"geo_name":"妙山幼儿园","geo_addr":"王五镇光村村委会"}},
{"type":"Feature","geometry":{"type":"Point","coordinates":[109.31911600000024,19.652133999999933]},"properties":{"OBJECTID":22842,"PID":"4690031112010001600q","WSCD":"WHFB0303G0000000","ADCD":"469003111206100","DANADCD":"","CADCD":"469003","b11_code":"469003","b11_name":"儋州市","b12_code":"469003111","b12_name":"王五镇","b13_name":"王五镇光村村委会","b13_code":"469003111206011","lon":109.319116,"lat":19.652134,"geo_name":"妙山卫生站","geo_addr":"王五镇光村村委会"}},
{"type":"Feature","geometry":{"type":"Point","coordinates":[109.24473600000005,19.44294300000007]},"properties":{"OBJECTID":22843,"PID":"4690031040030001600r","WSCD":"WHF65001I0000000","ADCD":"469003104003100","DANADCD":"","CADCD":"469003","b11_code":"469003","b11_name":"儋州市","b12_code":"469003104","b12_name":"雅星镇","b13_name":"雅星镇新隆村委会","b13_code":"469003104205014","lon":109.244736,"lat":19.442943,"geo_name":"新村逸夫小学","geo_addr":"雅星镇新隆村委会"}},
{"type":"Feature","geometry":{"type":"Point","coordinates":[109.242975,19.443172000000004]},"properties":{"OBJECTID":22844,"PID":"4690031040030001600s","WSCD":"WHF65001I0000000","ADCD":"469003104003100","DANADCD":"","CADCD":"469003","b11_code":"469003","b11_name":"儋州市","b12_code":"469003104","b12_name":"雅星镇","b13_name":"雅星镇新隆村委会","b13_code":"469003104205014","lon":109.242975,"lat":19.443172,"geo_name":"雅星新村卫生站","geo_addr":"雅星镇新隆村委会"}},
{"type":"Feature","geometry":{"type":"Point","coordinates":[109.42675700000018,19.530060999999932]},"properties":{"OBJECTID":22845,"PID":"4690031030120001600t","WSCD":"WHF6B001H0000000","ADCD":"469003103012100","DANADCD":"","CADCD":"469003","b11_code":"469003","b11_name":"儋州市","b12_code":"469003103","b12_name":"大成镇","b13_name":"国营西庆农场","b13_code":"469003103503013","lon":109.426757,"lat":19.530061,"geo_name":"勇敢小学","geo_addr":"国营西庆农场"}},
{"type":"Feature","geometry":{"type":"Point","coordinates":[109.71955700000007,19.438029000000085]},"properties":{"OBJECTID":22846,"PID":"4690031052010001600u","WSCD":"WHF60001211dA000","ADCD":"469003105201104","DANADCD":"","CADCD":"469003","b11_code":"469003","b11_name":"儋州市","b12_code":"469003105","b12_name":"兰洋镇","b13_name":"兰洋镇水南村委会","b13_code":"469003105201025","lon":109.719557,"lat":19.438029,"geo_name":"水南小学","geo_addr":"兰洋镇水南村委会"}},
{"type":"Feature","geometry":{"type":"Point","coordinates":[109.09082700000022,19.499578000000042]},"properties":{"OBJECTID":22847,"PID":"4690031045040001600v","WSCD":"WHFB0101A0000000","ADCD":"469003104504000","DANADCD":"","CADCD":"469003","b11_code":"469003","b11_name":"儋州市","b12_code":"469003104","b12_name":"雅星镇","b13_name":"国营红岭农场","b13_code":"469003104505014","lon":109.090827,"lat":19.499578,"geo_name":"儋州市红岭学校","geo_addr":"国营红岭农场"}},
{"type":"Feature","geometry":{"type":"Point","coordinates":[108.94304,19.50793900000008]},"properties":{"OBJECTID":22848,"PID":"4690031080020001600w","WSCD":"WMA0000A02100000","ADCD":"469003108002100","DANADCD":"","CADCD":"469003","b11_code":"469003","b11_name":"儋州市","b12_code":"469003108","b12_name":"海头镇","b13_name":"海头镇南港社区居委会","b13_code":"469003108002018","lon":108.94304,"lat":19.507939,"geo_name":"南港小学","geo_addr":"海头镇南港社区居委会"}},
{"type":"Feature","geometry":{"type":"Point","coordinates":[108.94537800000018,19.516292000000078]},"properties":{"OBJECTID":22849,"PID":"4690031080010001600x","WSCD":"WMA0000A02200000","ADCD":"469003108001100","DANADCD":"","CADCD":"469003","b11_code":"469003","b11_name":"儋州市","b12_code":"469003108","b12_name":"海头镇","b13_name":"海头镇港口社区居委会","b13_code":"469003108001018","lon":108.945378,"lat":19.516292,"geo_name":"港口小学","geo_addr":"海头镇港口社区居委会"}},
{"type":"Feature","geometry":{"type":"Point","coordinates":[110.06842099999994,18.498524999999972]},"properties":{"OBJECTID":22089,"PID":"4690281002120001b001","WSCD":"WHF6300114000000","ADCD":"469028100212000","DANADCD":"4690281002120000b08n","CADCD":"469028","b11_code":"469028","b11_name":"陵水黎族自治县","b12_code":"469028100","b12_name":"椰林镇","b13_name":"里村村委会","b13_code":"469028100212010","lon":110.068421,"lat":18.498525,"geo_name":"里仁小学","geo_addr":"里村村委会"}},
{"type":"Feature","geometry":{"type":"Point","coordinates":[109.87035799999995,18.584911999999974]},"properties":{"OBJECTID":22090,"PID":"4690282012000000z001","WSCD":"WHF630012B000000","ADCD":"469028201000000","DANADCD":"4690282012000000b091","CADCD":"469028","b11_code":"469028","b11_name":"陵水黎族自治县","b12_code":"469028201","b12_name":"群英乡","b13_name":"芬坡村委会","b13_code":"469028201200011","lon":109.870358,"lat":18.584912,"geo_name":"群英乡希望小学","geo_addr":"芬坡村委会"}},
{"type":"Feature","geometry":{"type":"Point","coordinates":[109.87182400000006,18.585901999999976]},"properties":{"OBJECTID":22091,"PID":"4690282012000000z002","WSCD":"WHF630012C000000","ADCD":"469028201000000","DANADCD":"4690282012000000Z00h","CADCD":"469028","b11_code":"469028","b11_name":"陵水黎族自治县","b12_code":"469028201","b12_name":"群英乡","b13_name":"芬坡村委会","b13_code":"469028201200011","lon":109.871824,"lat":18.585902,"geo_name":"群英乡卫生院","geo_addr":"芬坡村委会"}},
{"type":"Feature","geometry":{"type":"Point","coordinates":[109.87352900000013,18.58551900000009]},"properties":{"OBJECTID":22092,"PID":"4690282012000000z003","WSCD":"WHF630012C000000","ADCD":"469028201000000","DANADCD":"4690282012000000Z00h","CADCD":"469028","b11_code":"469028","b11_name":"陵水黎族自治县","b12_code":"469028201","b12_name":"群英乡","b13_name":"芬坡村委会","b13_code":"469028201200011","lon":109.873529,"lat":18.585519,"geo_name":"群英乡弄村信用社","geo_addr":"芬坡村委会"}},
{"type":"Feature","geometry":{"type":"Point","coordinates":[109.87423300000012,18.585329]},"properties":{"OBJECTID":22093,"PID":"4690282010000000z004","WSCD":"WHF630012C000000","ADCD":"469028201000000","DANADCD":"4690282012000000Z00h","CADCD":"469028","b11_code":"469028","b11_name":"陵水黎族自治县","b12_code":"469028201","b12_name":"群英乡","b13_name":"芬坡村委会","b13_code":"469028201200011","lon":109.874233,"lat":18.585329,"geo_name":"群英乡财政局分所","geo_addr":"芬坡村委会"}},
{"type":"Feature","geometry":{"type":"Point","coordinates":[109.87090200000017,18.585671000000048]},"properties":{"OBJECTID":22094,"PID":"4690282010000000z005","WSCD":"WHF630012B000000","ADCD":"469028201000000","DANADCD":"4690282012000000b090","CADCD":"469028","b11_code":"469028","b11_name":"陵水黎族自治县","b12_code":"469028201","b12_name":"群英乡","b13_name":"芬坡村委会","b13_code":"469028201200011","lon":109.870902,"lat":18.585671,"geo_name":"中国邮政群英乡分办","geo_addr":"芬坡村委会"}},
{"type":"Feature","geometry":{"type":"Point","coordinates":[110.03123600000026,18.512361000000055]},"properties":{"OBJECTID":22095,"PID":"4690281000000001400a","WSCD":"WHF630012J000000","ADCD":"469028100000000","DANADCD":"4690281000020000b096","CADCD":"469028","b11_code":"469028","b11_name":"陵水黎族自治县","b12_code":"469028100","b12_name":"椰林镇","b13_name":"坡留村委会","b13_code":"469028100203010","lon":110.031236,"lat":18.512361,"geo_name":"海韵广场","geo_addr":"坡留村委会"}},
{"type":"Feature","geometry":{"type":"Point","coordinates":[110.03018199999991,18.51285300000012]},"properties":{"OBJECTID":22096,"PID":"4690281000000001400c","WSCD":"WHF630012J000000","ADCD":"469028100000000","DANADCD":"4690281000020000b096","CADCD":"469028","b11_code":"469028","b11_name":"陵水黎族自治县","b12_code":"469028100","b12_name":"椰林镇","b13_name":"坡留村委会","b13_code":"469028100203010","lon":110.030182,"lat":18.512853,"geo_name":"展览馆","geo_addr":"坡留村委会"}},
{"type":"Feature","geometry":{"type":"Point","coordinates":[110.02801900000003,18.523937000000046]},"properties":{"OBJECTID":22353,"PID":"46902810020110014002","WSCD":"WHF6300126R00000","ADCD":"469028100201100","DANADCD":"4690281002010000Z00c","CADCD":"469028","b11_code":"469028","b11_name":"陵水黎族自治县","b12_code":"469028100","b12_name":"椰林镇","b13_name":"桃园村委会","b13_code":"469028100201010","lon":110.028019,"lat":18.523937,"geo_name":"中心小学分校","geo_addr":"桃园村委会"}},
{"type":"Feature","geometry":{"type":"Point","coordinates":[110.04562699999997,18.547538999999972]},"properties":{"OBJECTID":22354,"PID":"4690281010000001400d","WSCD":"WHF6300126R00000","ADCD":"469028101000000","DANADCD":"4690281012070000Z00J","CADCD":"469028","b11_code":"469028","b11_name":"陵水黎族自治县","b12_code":"469028101","b12_name":"光坡镇","b13_name":"米桶村委会","b13_code":"469028101200011","lon":110.045627,"lat":18.547539,"geo_name":"中心小学","geo_addr":"米桶村委会"}},
{"type":"Feature","geometry":{"type":"Point","coordinates":[110.086161,18.527063999999996]},"properties":{"OBJECTID":22355,"PID":"46902810120500014008","WSCD":"WMA0000A042V0000","ADCD":"469028101205000","DANADCD":"4690281012060000Z00w","CADCD":"469028","b11_code":"469028","b11_name":"陵水黎族自治县","b12_code":"469028101","b12_name":"光坡镇","b13_name":"新岭村委会","b13_code":"469028101206011","lon":110.086161,"lat":18.527064,"geo_name":"港坡小学","geo_addr":"新岭村委会"}},
{"type":"Feature","geometry":{"type":"Point","coordinates":[110.62101400000023,19.236965999999995]},"properties":{"OBJECTID":23331,"PID":"4690021072010000i05h","WSCD":"WMA0000A04A00000","ADCD":"469002107000000","DANADCD":"","CADCD":"469002","b11_code":"469002","b11_name":"琼海市","b12_code":"469002107","b12_name":"潭门镇","b13_name":"潭门村委会","b13_code":"469002107201017","lon":110.621014,"lat":19.236966,"geo_name":"港达实业有限公司","geo_addr":"潭门村委会"}},
{"type":"Feature","geometry":{"type":"Point","coordinates":[109.92335699999995,18.902912000000015]},"properties":{"OBJECTID":23332,"PID":"46903010320200008001","WSCD":"WHF6200122F00000","ADCD":"469030103202000","DANADCD":"","CADCD":"469030","b11_code":"469030","b11_name":"琼中黎族苗族自治县","b12_code":"469030103","b12_name":"和平镇","b13_name":"什介村委会","b13_code":"469030103202023","lon":109.923357,"lat":18.902912,"geo_name":"什介小学","geo_addr":"什介村委会"}},
{"type":"Feature","geometry":{"type":"Point","coordinates":[109.85687900000022,19.15922500000005]},"properties":{"OBJECTID":23333,"PID":"46903010120300001001","WSCD":"WHF62101C0000000","ADCD":"469030101203000","DANADCD":"","CADCD":"469030","b11_code":"469030","b11_name":"琼中黎族苗族自治县","b12_code":"469030101","b12_name":"湾岭镇","b13_name":"国营乌石农场","b13_code":"469030101222011","lon":109.856879,"lat":19.159225,"geo_name":"来浩小学","geo_addr":"国营乌石农场"}},
{"type":"Feature","geometry":{"type":"Point","coordinates":[109.80892500000016,19.139650999999958]},"properties":{"OBJECTID":23334,"PID":"46903010120700001002","WSCD":"WHF6210600000000","ADCD":"469030101207000","DANADCD":"","CADCD":"469030","b11_code":"469030","b11_name":"琼中黎族苗族自治县","b12_code":"469030101","b12_name":"湾岭镇","b13_name":"大墩村委会","b13_code":"469030101207011","lon":109.808925,"lat":19.139651,"geo_name":"大墩小学","geo_addr":"大墩村委会"}},
{"type":"Feature","geometry":{"type":"Point","coordinates":[109.85391099999998,18.95643700000005]},"properties":{"OBJECTID":23335,"PID":"46903010420400001003","WSCD":"WHF62102G0000000","ADCD":"469030104204000","DANADCD":"","CADCD":"469030","b11_code":"469030","b11_name":"琼中黎族苗族自治县","b12_code":"469030104","b12_name":"长征镇","b13_name":"烟园村委会","b13_code":"469030104204014","lon":109.853911,"lat":18.956437,"geo_name":"香港教师会烟园冯和顺学校","geo_addr":"烟园村委会"}},
{"type":"Feature","geometry":{"type":"Point","coordinates":[109.86958900000025,18.966644000000088]},"properties":{"OBJECTID":23336,"PID":"46903010420500001004","WSCD":"WHF62103G0000000","ADCD":"469030104204100","DANADCD":"","CADCD":"469030","b11_code":"469030","b11_name":"琼中黎族苗族自治县","b12_code":"469030104","b12_name":"长征镇","b13_name":"潮村村委会","b13_code":"469030104200014","lon":109.869589,"lat":18.966644,"geo_name":"长征镇敬老院","geo_addr":"潮村村委会"}},
{"type":"Feature","geometry":{"type":"Point","coordinates":[109.88184799999993,18.96113500000007]},"properties":{"OBJECTID":23337,"PID":"46903010420000001005","WSCD":"WHF62101GA000000","ADCD":"469030104000000","DANADCD":"","CADCD":"469030","b11_code":"469030","b11_name":"琼中黎族苗族自治县","b12_code":"469030104","b12_name":"长征镇","b13_name":"潮村村委会","b13_code":"469030104200014","lon":109.881848,"lat":18.961135,"geo_name":"童星幼儿园","geo_addr":"潮村村委会"}},
{"type":"Feature","geometry":{"type":"Point","coordinates":[109.7802180000001,19.274662000000035]},"properties":{"OBJECTID":23338,"PID":"46903010220100001007","WSCD":"WHF60001271aA000","ADCD":"469030102000000","DANADCD":"","CADCD":"469030","b11_code":"469030","b11_name":"琼中黎族苗族自治县","b12_code":"469030102","b12_name":"黎母山镇","b13_name":"未划拨国有土地","b13_code":"469030102223022","lon":109.780218,"lat":19.274662,"geo_name":"黎母山养老院","geo_addr":"未划拨国有土地"}},
{"type":"Feature","geometry":{"type":"Point","coordinates":[109.779989,19.27284899999995]},"properties":{"OBJECTID":23339,"PID":"46903010220100001008","WSCD":"WHF60001271aA000","ADCD":"469030102000000","DANADCD":"","CADCD":"469030","b11_code":"469030","b11_name":"琼中黎族苗族自治县","b12_code":"469030102","b12_name":"黎母山镇","b13_name":"未划拨国有土地","b13_code":"469030102223022","lon":109.779989,"lat":19.272849,"geo_name":"黎母山卫生站","geo_addr":"未划拨国有土地"}},
{"type":"Feature","geometry":{"type":"Point","coordinates":[109.72570100000007,19.249647000000095]},"properties":{"OBJECTID":23340,"PID":"46903010220500001009","WSCD":"WHF60001221aAD00","ADCD":"469030102205000","DANADCD":"","CADCD":"469030","b11_code":"469030","b11_name":"琼中黎族苗族自治县","b12_code":"469030102","b12_name":"黎母山镇","b13_name":"南吉村委会","b13_code":"469030102205032","lon":109.725701,"lat":19.249647,"geo_name":"南吉小学","geo_addr":"南吉村委会"}},
{"type":"Feature","geometry":{"type":"Point","coordinates":[109.67779700000006,18.97205000000008]},"properties":{"OBJECTID":23341,"PID":"4690301052090000100a","WSCD":"WHF6100123000000","ADCD":"469030105209000","DANADCD":"","CADCD":"469030","b11_code":"469030","b11_name":"琼中黎族苗族自治县","b12_code":"469030105","b12_name":"红毛镇","b13_name":"罗解村委会","b13_code":"469030105209015","lon":109.677797,"lat":18.97205,"geo_name":"罗解卫生站","geo_addr":"罗解村委会"}},
{"type":"Feature","geometry":{"type":"Point","coordinates":[109.67824400000006,18.972112000000095]},"properties":{"OBJECTID":23342,"PID":"4690301052090000100b","WSCD":"WHF6100123000000","ADCD":"469030105209102","DANADCD":"","CADCD":"469030","b11_code":"469030","b11_name":"琼中黎族苗族自治县","b12_code":"469030105","b12_name":"红毛镇","b13_name":"罗解村委会","b13_code":"469030105209015","lon":109.678244,"lat":18.972112,"geo_name":"罗解小学","geo_addr":"罗解村委会"}},
{"type":"Feature","geometry":{"type":"Point","coordinates":[109.9562890000002,18.92598300000003]},"properties":{"OBJECTID":23343,"PID":"4690301032000000100c","WSCD":"WHF6200121H00000","ADCD":"469030103200107","DANADCD":"","CADCD":"469030","b11_code":"469030","b11_name":"琼中黎族苗族自治县","b12_code":"469030103","b12_name":"和平镇","b13_name":"林田村委会","b13_code":"469030103200033","lon":109.956289,"lat":18.925983,"geo_name":"林田小学","geo_addr":"林田村委会"}},
{"type":"Feature","geometry":{"type":"Point","coordinates":[110.01820500000014,18.809091999999964]},"properties":{"OBJECTID":23344,"PID":"4690301032070000100d","WSCD":"WHF6200121K00000","ADCD":"469030103207105","DANADCD":"","CADCD":"469030","b11_code":"469030","b11_name":"琼中黎族苗族自治县","b12_code":"469030103","b12_name":"和平镇","b13_name":"长沙村委会","b13_code":"469030103207013","lon":110.018205,"lat":18.809092,"geo_name":"长沙小学","geo_addr":"长沙村委会"}},
{"type":"Feature","geometry":{"type":"Point","coordinates":[110.01746800000012,18.812185000000113]},"properties":{"OBJECTID":23345,"PID":"4690301032070000100e","WSCD":"WHF6200121K00000","ADCD":"469030103207105","DANADCD":"","CADCD":"469030","b11_code":"469030","b11_name":"琼中黎族苗族自治县","b12_code":"469030103","b12_name":"和平镇","b13_name":"长沙村委会","b13_code":"469030103207013","lon":110.017468,"lat":18.812185,"geo_name":"长沙医院","geo_addr":"长沙村委会"}},
{"type":"Feature","geometry":{"type":"Point","coordinates":[110.06059600000003,18.80224700000008]},"properties":{"OBJECTID":23346,"PID":"4690301032060000100f","WSCD":"WHF6600121C00000","ADCD":"469030103206100","DANADCD":"","CADCD":"469030","b11_code":"469030","b11_name":"琼中黎族苗族自治县","b12_code":"469030103","b12_name":"和平镇","b13_name":"长兴村委会","b13_code":"469030103206013","lon":110.060596,"lat":18.802247,"geo_name":"长兴福和希望小学","geo_addr":"长兴村委会"}},
{"type":"Feature","geometry":{"type":"Point","coordinates":[110.05814999999996,18.80379400000004]},"properties":{"OBJECTID":23347,"PID":"4690301032060000100g","WSCD":"WHF6600121C00000","ADCD":"469030103206100","DANADCD":"","CADCD":"469030","b11_code":"469030","b11_name":"琼中黎族苗族自治县","b12_code":"469030103","b12_name":"和平镇","b13_name":"长兴村委会","b13_code":"469030103206013","lon":110.05815,"lat":18.803794,"geo_name":"长兴幼儿园","geo_addr":"长兴村委会"}},
{"type":"Feature","geometry":{"type":"Point","coordinates":[110.05896799999994,18.802324999999996]},"properties":{"OBJECTID":23348,"PID":"4690301032060000100h","WSCD":"WHF6600121C00000","ADCD":"469030103206100","DANADCD":"","CADCD":"469030","b11_code":"469030","b11_name":"琼中黎族苗族自治县","b12_code":"469030103","b12_name":"和平镇","b13_name":"长兴村委会","b13_code":"469030103206013","lon":110.058968,"lat":18.802325,"geo_name":"长兴卫生站","geo_addr":"长兴村委会"}},
{"type":"Feature","geometry":{"type":"Point","coordinates":[109.79686100000015,18.883520999999973]},"properties":{"OBJECTID":23349,"PID":"4690302012010000100i","WSCD":"WHF6200125000000","ADCD":"469030201201104","DANADCD":"","CADCD":"469030","b11_code":"469030","b11_name":"琼中黎族苗族自治县","b12_code":"469030201","b12_name":"上安乡","b13_name":"南万村委会","b13_code":"469030201201011","lon":109.796861,"lat":18.883521,"geo_name":"南万逸夫小学","geo_addr":"南万村委会"}},
{"type":"Feature","geometry":{"type":"Point","coordinates":[110.05262100000004,19.003708999999958]},"properties":{"OBJECTID":23350,"PID":"4690301062020000100l","WSCD":"WHF6200122UA0000","ADCD":"469030106202105","DANADCD":"","CADCD":"469030","b11_code":"469030","b11_name":"琼中黎族苗族自治县","b12_code":"469030106","b12_name":"中平镇","b13_name":"中平村委会","b13_code":"469030106202016","lon":110.052621,"lat":19.003709,"geo_name":"深湴小学","geo_addr":"中平村委会"}},
{"type":"Feature","geometry":{"type":"Point","coordinates":[110.02322500000002,19.03398800000008]},"properties":{"OBJECTID":23351,"PID":"4690301062030000100n","WSCD":"WHF6200121UA0000","ADCD":"469030106203100","DANADCD":"","CADCD":"469030","b11_code":"469030","b11_name":"琼中黎族苗族自治县","b12_code":"469030106","b12_name":"中平镇","b13_name":"南樼村委会","b13_code":"469030106203016","lon":110.023225,"lat":19.033988,"geo_name":"南坵小学","geo_addr":"南樼村委会"}},
{"type":"Feature","geometry":{"type":"Point","coordinates":[109.9009170000001,19.09097800000012]},"properties":{"OBJECTID":23352,"PID":"4690301012050000100p","WSCD":"WHF6210B00000000","ADCD":"469030101205101","DANADCD":"","CADCD":"469030","b11_code":"469030","b11_name":"琼中黎族苗族自治县","b12_code":"469030101","b12_name":"湾岭镇","b13_name":"中朗村委会","b13_code":"469030101205011","lon":109.900917,"lat":19.090978,"geo_name":"中朗小学","geo_addr":"中朗村委会"}},
{"type":"Feature","geometry":{"type":"Point","coordinates":[109.98585600000018,18.775000999999918]},"properties":{"OBJECTID":23353,"PID":"4690302002050000100q","WSCD":"WHF6200122IC0000","ADCD":"469030200205100","DANADCD":"","CADCD":"469030","b11_code":"469030","b11_name":"琼中黎族苗族自治县","b12_code":"469030200","b12_name":"吊罗山乡","b13_name":"响土村委会","b13_code":"469030200205010","lon":109.985856,"lat":18.775001,"geo_name":"响土小学","geo_addr":"响土村委会"}},
{"type":"Feature","geometry":{"type":"Point","coordinates":[110.02234100000004,18.939152000000036]},"properties":{"OBJECTID":23354,"PID":"4690301032010000100r","WSCD":"WHF6200121L00000","ADCD":"469030103201103","DANADCD":"","CADCD":"469030","b11_code":"469030","b11_name":"琼中黎族苗族自治县","b12_code":"469030103","b12_name":"和平镇","b13_name":"新兴村委会","b13_code":"469030103201023","lon":110.022341,"lat":18.939152,"geo_name":"新兴小学","geo_addr":"新兴村委会"}},
{"type":"Feature","geometry":{"type":"Point","coordinates":[109.86905099999996,18.855237000000102]},"properties":{"OBJECTID":23355,"PID":"4690302012060000100s","WSCD":"WHF6200128000000","ADCD":"469030201206100","DANADCD":"","CADCD":"469030","b11_code":"469030","b11_name":"琼中黎族苗族自治县","b12_code":"469030201","b12_name":"上安乡","b13_name":"中兴村委会","b13_code":"469030201206011","lon":109.869051,"lat":18.855237,"geo_name":"中兴小学","geo_addr":"中兴村委会"}},
{"type":"Feature","geometry":{"type":"Point","coordinates":[109.73419600000005,19.255123000000026]},"properties":{"OBJECTID":23356,"PID":"4690301022060000100t","WSCD":"WHF60001221aAD00","ADCD":"469030102206000","DANADCD":"","CADCD":"469030","b11_code":"469030","b11_name":"琼中黎族苗族自治县","b12_code":"469030102","b12_name":"黎母山镇","b13_name":"南利村委会","b13_code":"469030102206022","lon":109.734196,"lat":19.255123,"geo_name":"南利幼儿园","geo_addr":"南利村委会"}},
{"type":"Feature","geometry":{"type":"Point","coordinates":[110.119707,18.996477000000027]},"properties":{"OBJECTID":23357,"PID":"4690301062010000100u","WSCD":"WHF6200121M00000","ADCD":"469030106201000","DANADCD":"","CADCD":"469030","b11_code":"469030","b11_name":"琼中黎族苗族自治县","b12_code":"469030106","b12_name":"中平镇","b13_name":"南茂村委会","b13_code":"469030106201016","lon":110.119707,"lat":18.996477,"geo_name":"南茂卫生站","geo_addr":"南茂村委会"}},
{"type":"Feature","geometry":{"type":"Point","coordinates":[110.05386300000015,19.003629999999987]},"properties":{"OBJECTID":23358,"PID":"4690301062020000100v","WSCD":"WHF6200122UA0000","ADCD":"469030106202000","DANADCD":"","CADCD":"469030","b11_code":"469030","b11_name":"琼中黎族苗族自治县","b12_code":"469030106","b12_name":"中平镇","b13_name":"中平村委会","b13_code":"469030106202016","lon":110.053863,"lat":19.00363,"geo_name":"中平村卫生站","geo_addr":"中平村委会"}},
{"type":"Feature","geometry":{"type":"Point","coordinates":[110.02325300000001,19.03384000000011]},"properties":{"OBJECTID":23359,"PID":"4690301062030000100w","WSCD":"WHF6200121UA0000","ADCD":"469030106203000","DANADCD":"","CADCD":"469030","b11_code":"469030","b11_name":"琼中黎族苗族自治县","b12_code":"469030106","b12_name":"中平镇","b13_name":"南樼村委会","b13_code":"469030106203016","lon":110.023253,"lat":19.03384,"geo_name":"南坵卫生室","geo_addr":"南樼村委会"}},
{"type":"Feature","geometry":{"type":"Point","coordinates":[109.41017099999993,18.88789100000008]},"properties":{"OBJECTID":21104,"PID":"4690011032020001l00e","WSCD":"WHF610012H000000","ADCD":"469001103202002","DANADCD":"4690011032020021l01R","CADCD":"469001","b11_code":"469001","b11_name":"五指山市","b12_code":"469001103","b12_name":"番阳镇","b13_name":"毛组村委会","b13_code":"469001103202013","lon":109.410171,"lat":18.887891,"geo_name":"五指山市番阳中心学校毛组教学点","geo_addr":"毛组村委会"}},
{"type":"Feature","geometry":{"type":"Point","coordinates":[109.61279300000007,18.743619999999964]},"properties":{"OBJECTID":21105,"PID":"4690011012030001l00h","WSCD":"WHF6100124RA0000","ADCD":"469001101203001","DANADCD":"4690011012030011l01D","CADCD":"469001","b11_code":"469001","b11_name":"五指山市","b12_code":"469001101","b12_name":"南圣镇","b13_name":"什兰村委会","b13_code":"469001101202011","lon":109.612793,"lat":18.74362,"geo_name":"五指山市南圣中心学校牙南教学点","geo_addr":"什兰村委会"}},
{"type":"Feature","geometry":{"type":"Point","coordinates":[109.47747800000008,18.936101000000008]},"properties":{"OBJECTID":21106,"PID":"4690011022110001l00i","WSCD":"WHF610012D000000","ADCD":"469001102211002","DANADCD":"4690011022110021l021","CADCD":"469001","b11_code":"469001","b11_name":"五指山市","b12_code":"469001102","b12_name":"毛阳镇","b13_name":"毛兴村委会","b13_code":"469001102210012","lon":109.477478,"lat":18.936101,"geo_name":"毛阳镇毛贵小学","geo_addr":"毛兴村委会"}},
{"type":"Feature","geometry":{"type":"Point","coordinates":[109.50411500000024,18.96583800000002]},"properties":{"OBJECTID":21107,"PID":"4690011022070001l00j","WSCD":"WHF6100121JA0000","ADCD":"469001102207000","DANADCD":"4690011022070011l023","CADCD":"469001","b11_code":"469001","b11_name":"五指山市","b12_code":"469001102","b12_name":"毛阳镇","b13_name":"牙胡村委会","b13_code":"469001102207012","lon":109.504115,"lat":18.965838,"geo_name":"五指山市毛阳中心学校牙胡教学点","geo_addr":"牙胡村委会"}},
{"type":"Feature","geometry":{"type":"Point","coordinates":[109.40523400000001,18.79493300000013]},"properties":{"OBJECTID":21108,"PID":"4690012012010001l00k","WSCD":"WHF610012FRA0000","ADCD":"469001201201000","DANADCD":"4690012012010001l02v","CADCD":"469001","b11_code":"469001","b11_name":"五指山市","b12_code":"469001201","b12_name":"毛道乡","b13_name":"毛枝村委会","b13_code":"469001201201011","lon":109.405234,"lat":18.794933,"geo_name":"五指山市毛道中心学校","geo_addr":"毛枝村委会"}},
{"type":"Feature","geometry":{"type":"Point","coordinates":[109.589404,18.739847999999995]},"properties":{"OBJECTID":21109,"PID":"4690011012020001l00l","WSCD":"WHF6100125RA0000","ADCD":"469001101202000","DANADCD":"4690011012020001l02x","CADCD":"469001","b11_code":"469001","b11_name":"五指山市","b12_code":"469001101","b12_name":"南圣镇","b13_name":"什兰村委会","b13_code":"469001101202011","lon":109.589404,"lat":18.739848,"geo_name":"五指山市南圣中心学校","geo_addr":"什兰村委会"}},
{"type":"Feature","geometry":{"type":"Point","coordinates":[109.66355699999991,18.88119999999998]},"properties":{"OBJECTID":21110,"PID":"4690012022010001l00m","WSCD":"WHF6100121IAB000","ADCD":"469001202201000","DANADCD":"4690012022010001l02y","CADCD":"469001","b11_code":"469001","b11_name":"五指山市","b12_code":"469001202","b12_name":"水满乡","b13_name":"新村村委会","b13_code":"469001202201012","lon":109.663557,"lat":18.8812,"geo_name":"五指山水满中心学校","geo_addr":"新村村委会"}},
{"type":"Feature","geometry":{"type":"Point","coordinates":[109.47813800000011,18.737365000000068]},"properties":{"OBJECTID":21111,"PID":"4690012002010001l00o","WSCD":"WHF6100124RAH000","ADCD":"469001200201000","DANADCD":"4690012002010001l02t","CADCD":"469001","b11_code":"469001","b11_name":"五指山市","b12_code":"469001200","b12_name":"畅好乡","b13_name":"畅好村委会","b13_code":"469001200201010","lon":109.478138,"lat":18.737365,"geo_name":"五指山市畅好卫生院","geo_addr":"畅好村委会"}},
{"type":"Feature","geometry":{"type":"Point","coordinates":[109.40484100000015,18.791200000000003]},"properties":{"OBJECTID":21112,"PID":"4690012012010001l00p","WSCD":"WHF610012FRA0000","ADCD":"469001201201000","DANADCD":"4690012012010001l02v","CADCD":"469001","b11_code":"469001","b11_name":"五指山市","b12_code":"469001201","b12_name":"毛道乡","b13_name":"毛枝村委会","b13_code":"469001201201011","lon":109.404841,"lat":18.7912,"geo_name":"五指山市毛道乡卫生院","geo_addr":"毛枝村委会"}},
{"type":"Feature","geometry":{"type":"Point","coordinates":[109.40828700000003,18.793894000000137]},"properties":{"OBJECTID":21113,"PID":"4690012012010001l00q","WSCD":"WHF610012ERA0000","ADCD":"469001201201000","DANADCD":"4690012012010001l02v","CADCD":"469001","b11_code":"469001","b11_name":"五指山市","b12_code":"469001201","b12_name":"毛道乡","b13_name":"毛枝村委会","b13_code":"469001201201011","lon":109.408287,"lat":18.793894,"geo_name":"五指山市毛道中心幼儿园","geo_addr":"毛枝村委会"}},
{"type":"Feature","geometry":{"type":"Point","coordinates":[109.49900700000006,18.936177000000043]},"properties":{"OBJECTID":21114,"PID":"4690011022080001l00r","WSCD":"WHF6100122KA0000","ADCD":"469001102208000","DANADCD":"4690011022080001l02w","CADCD":"469001","b11_code":"469001","b11_name":"五指山市","b12_code":"469001102","b12_name":"毛阳镇","b13_name":"毛栈村委会","b13_code":"469001102206012","lon":109.499007,"lat":18.936177,"geo_name":"五指山市毛阳中心幼儿园","geo_addr":"毛栈村委会"}},
{"type":"Feature","geometry":{"type":"Point","coordinates":[110.14156500000007,19.72216300000008]},"properties":{"OBJECTID":22033,"PID":"4690231022020000W002","WSCD":"WHF60001221CBA00","ADCD":"469023102202101","DANADCD":"4690231022020000W007","CADCD":"469023","b11_code":"469023","b11_name":"澄迈县","b12_code":"469023007","b12_name":"瑞溪镇","b13_name":"群庄村民委员会","b13_code":"469023007004017","lon":110.141565,"lat":19.722163,"geo_name":"南头小学","geo_addr":"群庄村民委员会"}},
{"type":"Feature","geometry":{"type":"Point","coordinates":[110.22543300000001,19.65612200000004]},"properties":{"OBJECTID":22034,"PID":"4690231032140000W005","WSCD":"WHF60101S0000000","ADCD":"469023103214102","DANADCD":"4690231032140000W00a","CADCD":"469023","b11_code":"469023","b11_name":"澄迈县","b12_code":"469023010","b12_name":"永发镇","b13_name":"赛玉村民委员会","b13_code":"469023010013010","lon":110.225433,"lat":19.656122,"geo_name":"塞玉村塞玉小学","geo_addr":"赛玉村民委员会"}},
{"type":"Feature","geometry":{"type":"Point","coordinates":[110.05840600000016,19.533149000000037]},"properties":{"OBJECTID":22035,"PID":"4690231052020000d001","WSCD":"WHF60001211xA000","ADCD":"469023105202000","DANADCD":"4690231052020001500h","CADCD":"469023","b11_code":"469023","b11_name":"澄迈县","b12_code":"469023004","b12_name":"文儒镇","b13_name":"文儒中心小学","b13_code":"469023004077014","lon":110.058406,"lat":19.533149,"geo_name":"文儒中兴学校","geo_addr":"文儒中心小学"}},
{"type":"Feature","geometry":{"type":"Point","coordinates":[109.87617799999992,19.494234129999995]},"properties":{"OBJECTID":22036,"PID":"4690231072000000Y00a","WSCD":"WHF60001211rAB00","ADCD":"469023107000000","DANADCD":"4690231072000000M003","CADCD":"469023","b11_code":"469023","b11_name":"澄迈县","b12_code":"469023003","b12_name":"仁兴镇","b13_name":"西达农场","b13_code":"469023003096013","lon":109.876178,"lat":19.494234,"geo_name":"仁兴卫生院","geo_addr":"西达农场"}},
{"type":"Feature","geometry":{"type":"Point","coordinates":[110.0503910000001,19.742674000000022]},"properties":{"OBJECTID":22037,"PID":"4690231002190000Y009","WSCD":"WHF600012m100000","ADCD":"469023100219102","DANADCD":"46902310021900015003","CADCD":"469023","b11_code":"469023","b11_name":"澄迈县","b12_code":"469023051","b12_name":"金江镇","b13_name":"茂坡村民委员会","b13_code":"469023051001011","lon":110.050391,"lat":19.742674,"geo_name":"澄迈县金桥镇令尾村卫生室","geo_addr":"茂坡村民委员会"}},
{"type":"Feature","geometry":{"type":"Point","coordinates":[109.85381958889997,19.56743242500005]},"properties":{"OBJECTID":22038,"PID":"4690231060000001c007","WSCD":"WHF60001211rAC00","ADCD":"469023106000000","DANADCD":"4690231060000001c00s","CADCD":"469023","b11_code":"469023","b11_name":"澄迈县","b12_code":"469023008","b12_name":"中兴镇","b13_name":"中兴居委会","b13_code":"469023008051018","lon":109.85382,"lat":19.567432,"geo_name":"中兴镇卫生院","geo_addr":"中兴居委会"}},
{"type":"Feature","geometry":{"type":"Point","coordinates":[109.85469859439996,19.569667155599916]},"properties":{"OBJECTID":22039,"PID":"4690231060000001c008","WSCD":"WHF60001211rAC00","ADCD":"469023106000000","DANADCD":"4690231060000001c00s","CADCD":"469023","b11_code":"469023","b11_name":"澄迈县","b12_code":"469023008","b12_name":"中兴镇","b13_name":"中兴居委会","b13_code":"469023008051018","lon":109.854699,"lat":19.569667,"geo_name":"中兴镇中兴中心学","geo_addr":"中兴居委会"}},
{"type":"Feature","geometry":{"type":"Point","coordinates":[109.85696930560005,19.57350966109999]},"properties":{"OBJECTID":22040,"PID":"4690231060000001c009","WSCD":"WHF60001211rAC00","ADCD":"469023106000000","DANADCD":"4690231060000001c00s","CADCD":"469023","b11_code":"469023","b11_name":"澄迈县","b12_code":"469023008","b12_name":"中兴镇","b13_name":"中兴居委会","b13_code":"469023008051018","lon":109.856969,"lat":19.57351,"geo_name":"中兴镇向阳幼儿园","geo_addr":"中兴居委会"}},
{"type":"Feature","geometry":{"type":"Point","coordinates":[110.05437365280005,19.53648965830007]},"properties":{"OBJECTID":22041,"PID":"4690231050000001c002","WSCD":"WHF60001211xA000","ADCD":"469023105000000","DANADCD":"4690231050000001c00q","CADCD":"469023","b11_code":"469023","b11_name":"澄迈县","b12_code":"469023004","b12_name":"文儒镇","b13_name":"文儒建成区","b13_code":"469023004076014","lon":110.054374,"lat":19.53649,"geo_name":"文儒卫生院","geo_addr":"文儒建成区"}},
{"type":"Feature","geometry":{"type":"Point","coordinates":[110.01558894440006,19.71414474720001]},"properties":{"OBJECTID":22042,"PID":"4690231002041011c001","WSCD":"WHF600012k100000","ADCD":"469023100204101","DANADCD":"4690231002041011c00l","CADCD":"469023","b11_code":"469023","b11_name":"澄迈县","b12_code":"469023051","b12_name":"金江镇","b13_name":"北潭村民委员会","b13_code":"469023051022011","lon":110.015589,"lat":19.714145,"geo_name":"澄迈县金江镇博潭村卫生室","geo_addr":"北潭村民委员会"}},
{"type":"Feature","geometry":{"type":"Point","coordinates":[110.00498500000003,19.731873000000007]},"properties":{"OBJECTID":22043,"PID":"46902310000100015001","WSCD":"WHF60001211yA000","ADCD":"469023100001000","DANADCD":"4690231000000001c00j","CADCD":"469023","b11_code":"469023","b11_name":"澄迈县","b12_code":"469023051","b12_name":"金江镇","b13_name":"金江城建区","b13_code":"469023051309011","lon":110.004985,"lat":19.731873,"geo_name":"中国农业银行","geo_addr":"金江城建区"}},
{"type":"Feature","geometry":{"type":"Point","coordinates":[110.00505400000003,19.732549000000006]},"properties":{"OBJECTID":22044,"PID":"46902310000100015002","WSCD":"WHF60001211yA000","ADCD":"469023100001000","DANADCD":"4690231000000001c00j","CADCD":"469023","b11_code":"469023","b11_name":"澄迈县","b12_code":"469023051","b12_name":"金江镇","b13_name":"金江城建区","b13_code":"469023051309011","lon":110.005054,"lat":19.732549,"geo_name":"澄迈第二小学","geo_addr":"金江城建区"}},
{"type":"Feature","geometry":{"type":"Point","coordinates":[110.00172700000013,19.73125399999998]},"properties":{"OBJECTID":22045,"PID":"46902310000100015003","WSCD":"WHF60001211yA000","ADCD":"469023100001000","DANADCD":"4690231000000001c00j","CADCD":"469023","b11_code":"469023","b11_name":"澄迈县","b12_code":"469023051","b12_name":"金江镇","b13_name":"金江城建区","b13_code":"469023051309011","lon":110.001727,"lat":19.731254,"geo_name":"澄迈县第一小学","geo_addr":"金江城建区"}},
{"type":"Feature","geometry":{"type":"Point","coordinates":[110.0029980000001,19.73154900000003]},"properties":{"OBJECTID":22046,"PID":"46902310000100015004","WSCD":"WHF60001211yA000","ADCD":"469023100001000","DANADCD":"4690231000000001c00j","CADCD":"469023","b11_code":"469023","b11_name":"澄迈县","b12_code":"469023051","b12_name":"金江镇","b13_name":"金江城建区","b13_code":"469023051309011","lon":110.002998,"lat":19.731549,"geo_name":"贝贝乐双语幼儿园","geo_addr":"金江城建区"}},
{"type":"Feature","geometry":{"type":"Point","coordinates":[110.00852300000003,19.733330000000137]},"properties":{"OBJECTID":22047,"PID":"46902310000200015005","WSCD":"WHF60001211yA000","ADCD":"469023100002000","DANADCD":"4690231000000001c00j","CADCD":"469023","b11_code":"469023","b11_name":"澄迈县","b12_code":"469023051","b12_name":"金江镇","b13_name":"金江城建区","b13_code":"469023051309011","lon":110.008523,"lat":19.73333,"geo_name":"澄迈县中医院","geo_addr":"金江城建区"}},
{"type":"Feature","geometry":{"type":"Point","coordinates":[110.00904200000014,19.730643000000043]},"properties":{"OBJECTID":22048,"PID":"46902310000300015006","WSCD":"WHF60001211yA000","ADCD":"469023100003000","DANADCD":"4690231000000001c00j","CADCD":"469023","b11_code":"469023","b11_name":"澄迈县","b12_code":"469023051","b12_name":"金江镇","b13_name":"金江城建区","b13_code":"469023051309011","lon":110.009042,"lat":19.730643,"geo_name":"澄迈县120急救中心（金江镇卫生门诊部）","geo_addr":"金江城建区"}},
{"type":"Feature","geometry":{"type":"Point","coordinates":[110.00176200000016,19.733128000000136]},"properties":{"OBJECTID":22049,"PID":"46902310000700015008","WSCD":"WHF60001211yA000","ADCD":"469023100007000","DANADCD":"4690231000000001c00j","CADCD":"469023","b11_code":"469023","b11_name":"澄迈县","b12_code":"469023051","b12_name":"金江镇","b13_name":"金江城建区","b13_code":"469023051309011","lon":110.001762,"lat":19.733128,"geo_name":"宝宝家幼儿园","geo_addr":"金江城建区"}},
{"type":"Feature","geometry":{"type":"Point","coordinates":[110.00274299999995,19.73308000000003]},"properties":{"OBJECTID":22050,"PID":"46902310000100015009","WSCD":"WHF60001211yA000","ADCD":"469023100001000","DANADCD":"4690231000000001c00j","CADCD":"469023","b11_code":"469023","b11_name":"澄迈县","b12_code":"469023051","b12_name":"金江镇","b13_name":"金江城建区","b13_code":"469023051309011","lon":110.002743,"lat":19.73308,"geo_name":"小军营幼儿园","geo_addr":"金江城建区"}},
{"type":"Feature","geometry":{"type":"Point","coordinates":[110.0092820000001,19.73239000000001]},"properties":{"OBJECTID":22051,"PID":"4690231000020001500a","WSCD":"WHF60001211yA000","ADCD":"469023100002000","DANADCD":"4690231000000001c00j","CADCD":"469023","b11_code":"469023","b11_name":"澄迈县","b12_code":"469023051","b12_name":"金江镇","b13_name":"金江城建区","b13_code":"469023051309011","lon":110.009282,"lat":19.73239,"geo_name":"澄迈县金江镇小学","geo_addr":"金江城建区"}},